local,oaci,iata,tipo,denominacion,coordenadas,latitud,longitud,elev,uom_elev,ref,distancia_ref,direccion_ref,condicion,control,region,fir,uso,trafico,sna,concesionado,provincia,inhab
ACB,SIN_CODIGO,SIN_CODIGO,aeródromo,CORONEL BOGADO/AGROSERVICIOS,"33°16'20""S  60°34'14""W",-60.57066,-33.27226,44.0,Metros,Coronel Bogado,6.0,NE,PRIVADO,NOCONTROL,RACE,SAEF,aeroapp,Nacional,NO,NO,Santa Fé,NO
ACH,SIN_CODIGO,SIN_CODIGO,aeródromo,GENERAL ACHA,"37°24' 6""S  64°36'49""W",-64.61351,-37.40164,277.0,Metros,General Acha,3.0,SO,PUBLICO,NOCONTROL,RACE,SAEF,civil,Nacional,NO,NO,La Pampa,NO
ACM,SIN_CODIGO,SIN_CODIGO,aeródromo,ARRECIFES/LA CURA MALAL,"34° 4'33""S  60° 8'30""W",-60.1417,-34.07574,37.0,Metros,Arrecifes,4.0,OSO,PRIVADO,NOCONTROL,RACE,SAEF,civil,Nacional,NO,NO,Buenos Aires,NO
ADO,SAWD,PUD,aeródromo,PUERTO DESEADO,"47°44' 6""S  65°54'15""W",-65.9041,-47.73511,82.0,Metros,Puerto Deseado,2.0,N,PUBLICO,AERADIO,RASU,SAVF,civil,Nacional,NO,NO,Santa Cruz,NO
ADT,SIN_CODIGO,SIN_CODIGO,aeródromo,BANDERA/AGROSERVICIOS DOÑA TERESA,"28°51'19""S  62°15'53""W",-62.26462,-28.85541,75.0,Metros,Bandera,4.0,N,PRIVADO,NOCONTROL,RANO,SACF,aeroapp,Nacional,NO,NO,Santiago Del Estero,NO
ADU,SIN_CODIGO,SIN_CODIGO,aeródromo,BANDERA/DUTTO,"28°52' 1""S  62°14'17""W",-62.23812,-28.86691,87.0,Metros,Bandera,3.0,NE,PRIVADO,NOCONTROL,RANO,SACF,aeroapp,Nacional,NO,NO,Santiago Del Estero,NO
AER,SABE,AEP,aeródromo,BUENOS AIRES/AEROPARQUE J. NEWBERY,"34°33'32""S  58°24'59""W",-58.41638889,-34.55888889,5.6,Metros,Ciudad de Buenos Aires,2.0,NE,PUBLICO,CONTROL,RACE,SAEF,joint,Internacional,SI,SI,Ciudad Autónoma De Buenos Aires,NO
AGI,SAVA,SIN_CODIGO,aeródromo,PIEDRA DEL ÁGUILA,"40°11'32""S  70° 0'39""W",-70.01075,-40.19232,649.0,Metros,Piedra del Águila,17.0,SSE,PRIVADO,NOCONTROL,RACE,SAEF,desconocido,Nacional,NO,NO,Neuquén,NO
AGR,SIN_CODIGO,SIN_CODIGO,aeródromo,ALTA GRACIA,"31°39' 4""S  64°23'38""W",-64.39388889,-31.65111111,533.0,Metros,Alta Gracia,2.0,E,PUBLICO,NOCONTROL,RANO,SACF,civil,Nacional,NO,NO,Córdoba,NO
AII,SIN_CODIGO,SIN_CODIGO,aeródromo,CHACABUCO/LAS DOS A,"34°48'40""S  60°30'60""W",-60.51661,-34.81116,60.0,Metros,Chacabuco,20.0,SSO,PRIVADO,NOCONTROL,RACE,SAEF,aeroapp,Nacional,NO,NO,Buenos Aires,NO
AJA,SIN_CODIGO,SIN_CODIGO,aeródromo,LA LAJA,"31°21' 5""S  68°28'23""W",-68.47305556,-31.35138889,650.0,Metros,La Laja,1.0,SSE,PRIVADO,NOCONTROL,RANO,SAMF,civil,Nacional,NO,NO,San Juan,NO
ALC,SIN_CODIGO,SIN_CODIGO,aeródromo,AMEGHINO/LA CHACRA,"34°48'34""S  62°31'23""W",-62.52293,-34.80942,109.0,Metros,Florentino Ameghino,7.0,NO,PRIVADO,NOCONTROL,RACE,SAEF,civil,Nacional,NO,NO,Buenos Aires,NO
ALL,SIN_CODIGO,SIN_CODIGO,aeródromo,ALLEN,"38°57'30""S  67°48'10""W",-67.80277778,-38.95833333,290.0,Metros,Allen,3.5,E,PRIVADO,NOCONTROL,RACE,SAEF,civil,Nacional,NO,NO,Río Negro,NO
ALR,SIN_CODIGO,SIN_CODIGO,aeródromo,ALEJANDRO ROCA,"33°20'55""S  63°43'48""W",-63.73,-33.34861111,210.0,Metros,Alejandro Roca,1.5,SO,PRIVADO,NOCONTROL,RANO,SACF,civil,Nacional,NO,NO,Córdoba,NO
ALT,SIN_CODIGO,SIN_CODIGO,aeródromo,CRUZ ALTA,"33° 0'28""S  61°50'13""W",-61.83694444,-33.00777778,97.0,Metros,Cruz Alta,2.0,O,PUBLICO,NOCONTROL,RACE,SACF,civil,Nacional,NO,NO,Córdoba,NO
ALV,SIN_CODIGO,SIN_CODIGO,aeródromo,ALVEAR/AGROALVEAR SRL,"33° 4' 7""S  60°40' 1""W",-60.66682,-33.06853,32.0,Metros,Alvear,4.5,O,PRIVADO,NOCONTROL,RACE,SAEF,aeroapp,Nacional,NO,NO,Santa Fé,NO
AMA,SIN_CODIGO,SIN_CODIGO,aeródromo,ROBERTS/LA AMALIA,"35° 6' 2""S  62° 0'60""W",-62.01657,-35.10043,100.0,Metros,Roberts,6.5,NO,PRIVADO,NOCONTROL,RACE,SAEF,aeroapp,Nacional,NO,NO,Buenos Aires,NO
AME,SIN_CODIGO,SIN_CODIGO,aeródromo,AMEGHINO/SIGFRIDO ROHR,"34°49'50""S  62°28' 4""W",-62.46787,-34.83057,110.0,Metros,Florentino Ameghino,2.0,N,PRIVADO,NOCONTROL,RACE,SAEF,aeroapp,Nacional,NO,NO,Buenos Aires,NO
AMG,SIN_CODIGO,SIN_CODIGO,aeródromo,AMEGHINO,"34°50'43""S  62°28'58""W",-62.48266,-34.84541,110.0,Metros,Florentino Ameghino,2.5,ONO,PRIVADO,NOCONTROL,RACE,SAEF,civil,Nacional,NO,NO,Buenos Aires,NO
ANA,SIN_CODIGO,SIN_CODIGO,aeródromo,PARANÁ/AEROCLUB,"31°45'28""S  60°22'26""W",-60.37388889,-31.75777778,60.0,Metros,La Picada,15.0,ESE,PUBLICO,NOCONTROL,RACE,SAEF,desconocido,Nacional,NO,NO,Entre Ríos,NO
AND,SIN_CODIGO,SIN_CODIGO,aeródromo,ANDALGALÁ,"27°37'41""S  66°20'34""W",-66.34277778,-27.62805556,900.0,Metros,Andalgalá,1.0,O,PRIVADO,NOCONTROL,RANO,SACF,civil,Nacional,NO,NO,Catamarca,NO
APO,SIN_CODIGO,SIN_CODIGO,aeródromo,APÓSTOLES,"27°54'12""S  55°45'56""W",-55.76555556,-27.90333333,117.0,Metros,Apóstoles,1.6,NO,PRIVADO,NOCONTROL,RANE,SARR,civil,Nacional,NO,NO,Misiones,NO
ARB,SIN_CODIGO,SIN_CODIGO,aeródromo,ARRIBEÑOS,"34°13'19""S  61°23'12""W",-61.38666667,-34.22194444,82.0,Metros,Arribeños,3.3,SO,PUBLICO,NOCONTROL,RACE,SAEF,civil,Nacional,NO,NO,Buenos Aires,NO
ARS,SAVR,ARR,aeródromo,ALTO RÍO SENGUERR/D. C. SZLAPELIS,"45° 0'48""S  70°48'46""W",-70.81282,-45.0132,697.0,Metros,Alto Río Senguerr,3.0,N,PUBLICO,AERADIO,RASU,SACF,civil,Nacional,NO,NO,Chubut,NO
ARY,SIN_CODIGO,SIN_CODIGO,aeródromo,ARROYITO/ARCOR,"31°25'20""S  63° 0'18""W",-63.005,-31.42222222,148.0,Metros,Arroyito,4.0,E,PUBLICO,NOCONTROL,RANO,SACF,civil,Nacional,NO,NO,Córdoba,NO
ATE,SIN_CODIGO,SIN_CODIGO,aeródromo,ZÁRATE,"34° 7' 6""S  59° 4'58""W",-59.08266,-34.11829,26.0,Metros,Zárate,6.0,SO,PUBLICO,NOCONTROL,RACE,SAEF,desconocido,Nacional,NO,NO,Buenos Aires,NO
ATN,SIN_CODIGO,SIN_CODIGO,aeródromo,TRENQUE LAUQUEN/LA ARGENTINA,"35°59'52""S  62°42'23""W",-62.70635,-35.99773,95.0,Metros,Trenque Lauquen,2.0,SE,PRIVADO,NOCONTROL,RACE,SAEF,aeroapp,Nacional,NO,NO,Buenos Aires,NO
AUL,SIN_CODIGO,SIN_CODIGO,aeródromo,AMEGHINO/AUGUSTO LEGUIZAMÓN,"34°49' 5""S  62°28'38""W",-62.47709,-34.81797,109.0,Metros,Florentino Ameghino,3.0,NNO,PRIVADO,NOCONTROL,RACE,SAEF,aeroapp,Nacional,NO,NO,Buenos Aires,NO
AVA,SIN_CODIGO,SIN_CODIGO,aeródromo,ALVEAR/AEROPARQUE ROSARIO,"33° 2'49""S  60°35'51""W",-60.59756,-33.04691,26.0,Metros,Alvear,2.5,ENE,PUBLICO,NOCONTROL,RACE,SAEF,civil,Nacional,NO,NO,Santa Fé,NO
AVL,SIN_CODIGO,SIN_CODIGO,aeródromo,AVELLANEDA/PRESIDENTE AVELLANEDA,"29° 6'22""S  59°39'27""W",-59.6575,-29.10611111,45.0,Metros,Avellaneda,1.0,N,PUBLICO,NOCONTROL,RANE,SARR,civil,Nacional,NO,NO,Santa Fé,NO
AYA,SIN_CODIGO,SIN_CODIGO,aeródromo,AYACUCHO,"37° 9'45""S  58°28'23""W",-58.47305556,-37.1625,77.0,Metros,Ayacucho,0.9,SE,PUBLICO,NOCONTROL,RACE,SAEF,civil,Nacional,NO,NO,Buenos Aires,NO
BAD,SIN_CODIGO,SIN_CODIGO,aeródromo,BERÓN DE ASTRADA/DINALUCA S.A.,"27°22'58""S  57°38'39""W",-57.64416667,-27.38277778,67.0,Metros,Berón de Astrada,21.0,NNO,PRIVADO,NOCONTROL,RANE,SARR,civil,Nacional,NO,NO,Corrientes,NO
BAI,SIN_CODIGO,SIN_CODIGO,aeródromo,LAGO BUENOS AIRES,"46°34'34""S  70°56'53""W",-70.94805556,-46.57611111,387.0,Metros,Perito Moreno,2.5,NNO,PRIVADO,NOCONTROL,RASU,SAVF,civil,Nacional,NO,NO,Santa Cruz,NO
BAL,SIN_CODIGO,SIN_CODIGO,aeródromo,BALCARCE,"37°54'55""S  58°20'37""W",-58.34361111,-37.91527778,120.0,Metros,Balcarce,12.0,S,PUBLICO,NOCONTROL,RACE,SAEF,civil,Nacional,NO,NO,Buenos Aires,NO
BAR,SAZS,BRC,aeródromo,SAN CARLOS DE BARILOCHE,"41° 9' 4""S  71° 9'28""W",-71.15777778,-41.15111111,846.0,Metros,San Carlos de Bariloche,13.0,E,PUBLICO,CONTROL,RACE,SAEF,desconocido,Internacional,SI,SI,Río Negro,NO
BAS,SIN_CODIGO,SIN_CODIGO,aeródromo,BASAVILBASO,"32°21'42""S  58°52'54""W",-58.8816,-32.3616,60.0,Metros,Basavilbaso,1.0,NO,PUBLICO,NOCONTROL,RACE,SAEF,civil,Nacional,NO,NO,Entre Ríos,NO
BCA,SAZB,BHI,aeródromo,BAHÍA BLANCA/COMANDANTE ESPORA,"38°43'39""S  62° 9'12""W",-62.15333333,-38.7275,75.0,Metros,Bahía Blanca,10.0,E,PUBLICO,CONTROL,RACE,SAEF,joint,Nacional,SI,NO,Buenos Aires,NO
BDO,SIN_CODIGO,SIN_CODIGO,aeródromo,BARADERO,"33°49'16""S  59°29'34""W",-59.49279,-33.82122,29.0,Metros,Baradero,1.5,NO,PUBLICO,NOCONTROL,RACE,SAEF,civil,Nacional,NO,NO,Buenos Aires,NO
BDR,SIN_CODIGO,SIN_CODIGO,aeródromo,BAHÍA DORADA,"41°50'34""S  65° 4'56""W",-65.08222222,-41.84277778,36.0,Metros,Sierra Grande,35.0,SE,PRIVADO,NOCONTROL,RASU,SAVF,civil,Nacional,NO,NO,Río Negro,NO
BEL,SIN_CODIGO,SIN_CODIGO,aeródromo,BELL VILLE,"32°39'30""S  62°42' 7""W",-62.70194444,-32.65833333,131.0,Metros,Bell Ville,2.5,SSO,PUBLICO,NOCONTROL,RANO,SACF,civil,Nacional,NO,NO,Córdoba,NO
BEX,SIN_CODIGO,SIN_CODIGO,aeródromo,BARADERO,"33°51'31""S  59°28' 9""W",-59.46911,-33.85864,26.0,Metros,Pueblo Alsina,9.0,NO,PRIVADO,NOCONTROL,RACE,SAEF,ulm,Nacional,NO,NO,Buenos Aires,NO
BHB,SIN_CODIGO,SIN_CODIGO,aeródromo,BAHÍA BLANCA/AEROCLUB,"38°40'19""S  62°21' 9""W",-62.3525,-38.67194444,15.0,Metros,Bahía Blanca,9.0,NO,PRIVADO,NOCONTROL,RACE,SAEF,civil,Nacional,NO,NO,Buenos Aires,NO
BHT,SIN_CODIGO,SIN_CODIGO,aeródromo,BRAGADO/HARAS TRELLIRIS,"35°19'53""S  60°34'44""W",-60.57884,-35.33147,60.0,Metros,Bragado,12.0,S,PRIVADO,NOCONTROL,RACE,SAEF,civil,Nacional,NO,NO,Buenos Aires,NO
BIO,SAWT,RYO,aeródromo,EL TURBIO/28 DE NOVIEMBRE,"51°36'18""S  72°13'13""W",-72.22034,-51.60502,273.0,Metros,El Turbio,10.0,ONO,PUBLICO,AERADIO,RASU,SAVF,civil,Nacional,SI,NO,Santa Cruz,NO
BLA,SIN_CODIGO,SIN_CODIGO,aeródromo,BALCARCE/EA. LA ALBORADA,"37°27'46""S  58°11'18""W",-58.18833333,-37.46277778,64.0,Metros,Balcarce,43.0,NNE,PRIVADO,NOCONTROL,RACE,SAEF,civil,Nacional,NO,NO,Buenos Aires,NO
BLC,SIN_CODIGO,SIN_CODIGO,aeródromo,BALCARCE/EA. LOS CARDOS,"37°44' 7""S  58° 2'18""W",-58.03821,-37.73529,120.0,Metros,Balcarce,21.0,NE,PRIVADO,NOCONTROL,RACE,SAEF,civil,Nacional,NO,NO,Buenos Aires,NO
BLE,SIN_CODIGO,SIN_CODIGO,aeródromo,BALCARCE/EA. LA ESTRELLA,"37°33'34""S  58°39'58""W",-58.66611111,-37.55944444,139.0,Metros,Balcarce,53.0,N,PRIVADO,NOCONTROL,RACE,SAEF,civil,Nacional,NO,NO,Buenos Aires,NO
BLL,SIN_CODIGO,SIN_CODIGO,aeródromo,MIRAMAR/LAS CORTADERAS,"38°21'17""S  58° 6'31""W",-58.10861111,-38.35472222,16.0,Metros,Mechongue,25.0,SE,PRIVADO,NOCONTROL,RACE,SAEF,desconocido,Nacional,NO,NO,Buenos Aires,NO
BLN,SIN_CODIGO,SIN_CODIGO,aeródromo,LONDRES/BELÉN,"27°42'29""S  67° 5'42""W",-67.095,-27.70805556,1200.0,Metros,Belén,2.0,NE,PRIVADO,NOCONTROL,RANO,SACF,desconocido,Nacional,NO,NO,Catamarca,NO
BLR,SAZI,SIN_CODIGO,aeródromo,BOLIVAR,"36°11'12""S  61° 4'33""W",-61.07583333,-36.18666667,94.0,Metros,San Carlos de Bolivar,6.0,NNE,PUBLICO,NOCONTROL,RACE,SAEF,civil,Nacional,NO,NO,Buenos Aires,NO
BMO,SIN_CODIGO,SIN_CODIGO,aeródromo,BRAGADO/MALFATO,"35° 9' 6""S  60°30'20""W",-60.50555556,-35.15166667,57.0,Metros,Bragado,4.0,SO,PRIVADO,NOCONTROL,RACE,SAEF,aeroapp,Nacional,NO,NO,Buenos Aires,NO
BOE,SIN_CODIGO,SIN_CODIGO,aeródromo,MORTEROS/AEROBOERO,"30°43'51""S  62° 0'29""W",-62.00809,-30.73091,96.0,Metros,Morteros,1.0,S,PUBLICO,NOCONTROL,RANO,SACF,desconocido,Nacional,NO,NO,Córdoba,NO
BOG,SIN_CODIGO,SIN_CODIGO,aeródromo,CORONEL BOGADO/FUMIGACIONES CAMPAGNUCCI,"33°19'27""S  60°39'58""W",-60.66617,-33.32404,48.0,Metros,Coronel Bogado,6.0,O,PRIVADO,NOCONTROL,RACE,SAEF,aeroapp,Nacional,NO,NO,Santa Fé,NO
BOL,SAVB,EHL,aeródromo,EL BOLSÓN,"41°56'36""S  71°31'56""W",-71.53215,-41.94323,348.0,Metros,El Bolsón,0.0,Lindando,PUBLICO,AERADIO,RASU,SAVF,civil,Nacional,NO,NO,Río Negro,NO
BOM,SIN_CODIGO,SIN_CODIGO,aeródromo,BOMBAL/GRAN ANCONA,"33°26'19""S  61°18'12""W",-61.30323,-33.43852,97.0,Metros,Bombal,3.0,NE,PRIVADO,NOCONTROL,RACE,SAEF,civil,Nacional,NO,NO,Santa Fé,NO
BOS,SIN_CODIGO,SIN_CODIGO,aeródromo,LOBOS,"35°12'39""S  59° 8'12""W",-59.13666667,-35.21083333,29.0,Metros,Lobos,3.0,SO,PUBLICO,NOCONTROL,RACE,SAEF,desconocido,Nacional,NO,NO,Buenos Aires,NO
BPS,SIN_CODIGO,SIN_CODIGO,aeródromo,BRINKMANN/PABLO SIERRA AEROAPLICACIONES,"30°55'46""S  62° 3' 2""W",-62.05055556,-30.92944444,100.0,Metros,Brinckmann,6.5,SSO,PRIVADO,NOCONTROL,RANO,SACF,aeroapp,Nacional,NO,NO,Córdoba,NO
BRA,SIN_CODIGO,SIN_CODIGO,aeródromo,BRAGADO,"35° 8'43""S  60°28'55""W",-60.48194444,-35.14527778,60.0,Metros,Bragado,2.0,SSE,PUBLICO,NOCONTROL,RACE,SAEF,civil,Nacional,NO,NO,Buenos Aires,NO
BRF,SIN_CODIGO,SIN_CODIGO,aeródromo,BAHÍA BLANCA/LA REFORMA,"38°43'50""S  63°17'14""W",-63.28722,-38.7305,67.0,Metros,Bahía Blanca,88.0,O,PRIVADO,NOCONTROL,RASU,SAEF,civil,Nacional,NO,NO,Buenos Aires,NO
BRQ,SIN_CODIGO,SIN_CODIGO,aeródromo,BUTA RANQUIL/EL PORTÓN,"37°11'42""S  69°36'35""W",-69.60972222,-37.195,870.0,Metros,Buta Ranquil,22.0,SE,PRIVADO,NOCONTROL,RACE,SAMF,civil,Nacional,NO,NO,Neuquén,NO
BTA,SIN_CODIGO,SIN_CODIGO,aeródromo,BELLA VISTA,"28°31'34""S  59° 2'17""W",-59.03805556,-28.52611111,55.0,Metros,Bella Vista,0.0,Lindando,PUBLICO,NOCONTROL,RANE,SARR,civil,Nacional,NO,NO,Corrientes,NO
BTS,SIN_CODIGO,SIN_CODIGO,aeródromo,CORRAL DE BUSTOS,"33°16'53""S  62° 9' 5""W",-62.15138889,-33.28138889,120.0,Metros,Corral de Bustos,2.0,O,PRIVADO,NOCONTROL,RACE,SAEF,civil,Nacional,NO,NO,Córdoba,NO
CAF,SIN_CODIGO,SIN_CODIGO,aeródromo,CAFAYATE,"26° 3'51""S  65°55'50""W",-65.93055556,-26.06416667,1639.0,Metros,Cafayate,1.0,NO,PRIVADO,NOCONTROL,RANO,SACF,civil,Nacional,NO,NO,Salta,NO
CAL,SIN_CODIGO,SIN_CODIGO,aeródromo,CAMPO ARENAL,"27° 4'20""S  66°35'11""W",-66.58638889,-27.07222222,2324.0,Metros,Santa María,58.0,SO,PRIVADO,NOCONTROL,RANO,SACF,civil,Nacional,NO,NO,Catamarca,NO
CAM,SIN_CODIGO,SIN_CODIGO,aeródromo,CORRALITO/ALFONSO MENGO,"32° 1'28""S  64°16'46""W",-64.27944444,-32.02444444,545.0,Metros,Corralito,7.0,O,PRIVADO,NOCONTROL,RANO,SACF,aeroapp,Nacional,NO,NO,Córdoba,NO
CAT,SANC,CTC,aeródromo,CATAMARCA,"28°35'35""S  65°45' 4""W",-65.75111111,-28.59305556,464.0,Metros,San Fernando del Valle de Catamarca,15.0,SSE,PUBLICO,CONTROL,RANO,SACF,civil,Nacional,SI,SI,Catamarca,NO
CAY,SIN_CODIGO,SIN_CODIGO,aeródromo,SAN CAYETANO,"38°20' 2""S  59°37'49""W",-59.63027778,-38.33388889,100.0,Metros,San Cayetano,1.5,ONO,PRIVADO,NOCONTROL,RACE,SAEF,desconocido,Nacional,NO,NO,Buenos Aires,NO
CBA,SACO,COR,aeródromo,CÓRDOBA/ING. AER. A. L. V. TARAVELLA,"31°18'36""S  64°12'30""W",-64.20833333,-31.31,489.0,Metros,Córdoba,9.0,NNO,PUBLICO,CONTROL,RANO,SACF,civil,Internacional,SI,SI,Córdoba,NO
CBB,SIN_CODIGO,SIN_CODIGO,aeródromo,CAÑADA ROSQUIN/ByB SERVICIOS AGROPECUARIOS,"32° 6'42""S  61°37'55""W",-61.63196,-32.11159,73.0,Metros,Cañada Rosquín,7.0,SSO,PRIVADO,NOCONTROL,RACE,SAEF,aeroapp,Nacional,NO,NO,Santa Fé,NO
CBD,SIN_CODIGO,SIN_CODIGO,aeródromo,CABILDO,"38°29'55""S  61°53' 3""W",-61.88416667,-38.49861111,159.0,Metros,Cabildo,1.5,SE,PRIVADO,NOCONTROL,RACE,SAEF,civil,Nacional,NO,NO,Buenos Aires,NO
CCA,SATU,UZU,aeródromo,CURUZÚ CUATIÁ,"29°46'21""S  57°58'58""W",-57.98277778,-29.7725,70.0,Metros,Curuzú Cuatiá,4.0,ENE,PUBLICO,AERADIO,RANE,SARR,civil,Nacional,NO,NO,Corrientes,NO
CCH,SIN_CODIGO,SIN_CODIGO,aeródromo,CARLOS CASARES/HAYDEE,"35°40'12""S  61°24'20""W",-61.405525,-35.6698945,82.0,Metros,Carlos Casares,6.0,SW,PRIVADO,NOCONTROL,RACE,SAEF,civil,Nacional,NO,NO,Buenos Aires,NO
CCI,SIN_CODIGO,SIN_CODIGO,aeródromo,CALCHAQUÍ,"29°51' 6""S  60°17'31""W",-60.29201667,-29.85157222,56.0,Metros,Calchaquí,4.0,N,PRIVADO,NOCONTROL,RANE,SARR,civil,Nacional,NO,NO,Santa Fé,NO
CCM,SIN_CODIGO,SIN_CODIGO,aeródromo,CARLOS CASARES/MALATINI,"35°34' 9""S  61°22' 6""W",-61.36821,-35.56915,82.0,Metros,Carlos Casares,6.0,N,PRIVADO,NOCONTROL,RACE,SAEF,aeroapp,Nacional,NO,NO,Buenos Aires,NO
CCO,SIN_CODIGO,SIN_CODIGO,aeródromo,CARLOS CASARES/OTTAVIANI,"35°38'53""S  61°21' 1""W",-61.35038,-35.64817,82.0,Metros,Carlos Casares,2.0,SSE,PRIVADO,NOCONTROL,RACE,SAEF,aeroapp,Nacional,NO,NO,Buenos Aires,NO
CCP,SIN_CODIGO,SIN_CODIGO,aeródromo,CONCEPCIÓN,"27°20'41""S  65°37' 1""W",-65.61694444,-27.34472222,386.0,Metros,Concepción,2.4,O,PRIVADO,NOCONTROL,RANO,SACF,civil,Nacional,NO,NO,Tucumán,NO
CCS,SIN_CODIGO,SIN_CODIGO,aeródromo,CACHI,"25° 6'19""S  66° 9'26""W",-66.1572,-25.10518,2510.0,Metros,Cachi,2.0,NO,PRIVADO,NOCONTROL,RANO,SACF,civil,Nacional,NO,NO,Salta,NO
CDA,SIN_CODIGO,SIN_CODIGO,aeródromo,SARGENTO CABRAL/CONDOR DEL AIRE,"33°27'57""S  60°37'43""W",-60.62857,-33.46586,56.0,Metros,Sargento Cabral,4.0,S,PRIVADO,NOCONTROL,RACE,SAEF,aeroapp,Nacional,NO,NO,Santa Fé,NO
CDI,SIN_CODIGO,SIN_CODIGO,aeródromo,CARCARAÑÁ/DI GIUSEPPE,"32°53'28""S  61° 7'27""W",-61.12414,-32.89099,89.0,Metros,Carcarañá,5.0,SE,PRIVADO,NOCONTROL,RACE,SAEF,civil,Nacional,NO,NO,Santa Fé,NO
CDL,SIN_CODIGO,SIN_CODIGO,aeródromo,CAÑADA DE LUQUE/BIONDI,"30°45'28""S  63°44'53""W",-63.74818,-30.75769,249.0,Metros,Cañada de Luque,3.0,SW,PRIVADO,NOCONTROL,RANO,SACF,aeroapp,Nacional,NO,NO,Córdoba,NO
CDS,SIN_CODIGO,SIN_CODIGO,aeródromo,CAÑADÓN SECO,"46°32'17""S  67°33'35""W",-67.55972222,-46.53805556,90.0,Metros,Cañadón Seco,5.0,NE,PRIVADO,NOCONTROL,RASU,SAVF,civil,Nacional,NO,NO,Santa Cruz,NO
CDU,SIN_CODIGO,SIN_CODIGO,aeródromo,CONCEPCIÓN DEL URUGUAY,"32°27'18""S  58°18'24""W",-58.30666667,-32.455,34.0,Metros,Concepción del Uruguay,8.0,NO,PUBLICO,NOCONTROL,RACE,SAEF,civil,Nacional,NO,NO,Entre Ríos,NO
CED,SIN_CODIGO,SIN_CODIGO,aeródromo,MERCEDES,"33°38'32""S  65°25'14""W",-65.42051,-33.6422,515.0,Metros,Villa Mercedes,3.0,NE,PUBLICO,NOCONTROL,RANO,SAMF,desconocido,Nacional,NO,NO,San Luis,NO
CEJ,SIN_CODIGO,SIN_CODIGO,aeródromo,LAS CEJAS/AGROALAS SRL,"26°52'11""S  64°44'45""W",-64.74583333,-26.86972222,346.0,Metros,Las Cejas,2.0,NNO,PRIVADO,NOCONTROL,RANO,SACF,civil,Nacional,NO,NO,Tucumán,NO
CFU,SIN_CODIGO,SIN_CODIGO,aeródromo,CARHUE/FUMAGRO,"37°12'53""S  62°46'50""W",-62.78055556,-37.21472222,111.0,Metros,Carhué,5.0,SO,PRIVADO,NOCONTROL,RACE,SAEF,aeroapp,Nacional,NO,NO,Buenos Aires,NO
CHA,SIN_CODIGO,SIN_CODIGO,aeródromo,CHARATA,"27°12'59""S  61°12'36""W",-61.21011,-27.21639,92.0,Metros,Charata,10.0,S,PUBLICO,NOCONTROL,RANE,SARR,civil,Nacional,NO,NO,Chaco,NO
CHC,SIN_CODIGO,SIN_CODIGO,aeródromo,CHAJARI/EA. LA CHOZA,"30°32'20""S  58°17'34""W",-58.29287,-30.53899,72.0,Metros,Chajarí,39.0,NO,PRIVADO,NOCONTROL,RACE,SARR,civil,Nacional,NO,NO,Entre Ríos,NO
CHJ,SIN_CODIGO,SIN_CODIGO,aeródromo,CHAJARI,"30°45'14""S  58° 0' 0""W",-58.00002,-30.7539,53.0,Metros,Chajarí,1.5,O,PUBLICO,NOCONTROL,RACE,SAEF,civil,Nacional,NO,NO,Entre Ríos,NO
CHM,SAHC,HOS,aeródromo,CHOS MALAL,"37°26'39""S  70°13'23""W",-70.22305556,-37.44416667,850.0,Metros,Chos Malal,10.0,S,PUBLICO,NOCONTROL,RACE,SAMF,civil,Nacional,NO,NO,Neuquén,NO
CHO,SIN_CODIGO,SIN_CODIGO,aeródromo,CHOLILA,"42°28'50""S  71°27'25""W",-71.45682,-42.4806,574.0,Metros,Cholila,4.0,NO,PRIVADO,NOCONTROL,RASU,SAVF,civil,Nacional,NO,NO,Chubut,NO
CHP,SAZY,CPC,aeródromo,SAN MARTÍN DE LOS ANDES/AVIADOR C. CAMPOS,"40° 4'31""S  71° 8'14""W",-71.13722222,-40.07527778,783.0,Metros,San Martín de los Andes,20.0,ENE,PUBLICO,CONTROL,RACE,SAEF,civil,Nacional,SI,SI,Neuquén,NO
CHR,SIN_CODIGO,SIN_CODIGO,aeródromo,CHACHARRAMENDI,"37°20'24""S  65°38'49""W",-65.64701,-37.34005,290.0,Metros,Chacharramendi,0.5,SE,PUBLICO,NOCONTROL,RACE,SAEF,civil,Nacional,NO,NO,La Pampa,NO
CHT,SIN_CODIGO,SIN_CODIGO,aeródromo,CHARATA/EL GRINGO,"27°18'23""S  61°12'37""W",-61.21041,-27.30629,92.0,Metros,Charata,10.0,S,PRIVADO,NOCONTROL,RANE,SARR,civil,Nacional,NO,NO,Chaco,NO
CHY,SIN_CODIGO,SIN_CODIGO,aeródromo,CHIVILCOY,"34°57'45""S  60° 1'56""W",-60.03222222,-34.9625,53.0,Metros,Chivilcoy,7.0,S,PUBLICO,NOCONTROL,RACE,SAEF,civil,Nacional,NO,NO,Buenos Aires,NO
CIF,SIN_CODIGO,SIN_CODIGO,aeródromo,ARRECIFES/AEROCLUB,"34° 4'43""S  60° 2'46""W",-60.04602,-34.07849,43.0,Metros,Arrecifes,4.5,ESE,PRIVADO,NOCONTROL,RACE,SAEF,civil,Nacional,NO,NO,Buenos Aires,NO
CII,SIN_CODIGO,SIN_CODIGO,aeródromo,CORRIENTES/ITA IBATE,"27°26'54""S  57°25'20""W",-57.42222222,-27.44833333,68.0,Metros,Ita Ibate,8.0,OSO,PRIVADO,NOCONTROL,RANE,SARR,civil,Nacional,NO,NO,Corrientes,NO
CIP,SIN_CODIGO,SIN_CODIGO,aeródromo,CIPOLLETTI/AEROCLUB,"38°53'34""S  67°59'20""W",-67.98888889,-38.89277778,270.0,Metros,Cipolletti,5.5,N,PUBLICO,NOCONTROL,RACE,SAEF,civil,Nacional,NO,NO,Río Negro,NO
CIT,SIN_CODIGO,SIN_CODIGO,aeródromo,CORRIENTES/ITATI,"27°18'12""S  58°18'55""W",-58.31527778,-27.30333333,60.0,Metros,Itatí,8.0,OSO,PRIVADO,NOCONTROL,RANE,SARR,aeroapp,Nacional,NO,NO,Corrientes,NO
CLD,SIN_CODIGO,SIN_CODIGO,aeródromo,CHAÑAR LADEADO,"33°20'21""S  62° 2'13""W",-62.03693,-33.3391,112.0,Metros,Chañar Ladeado,0.0,Lindando,PUBLICO,NOCONTROL,RACE,SAEF,civil,Nacional,NO,NO,Santa Fé,NO
CLE,SIN_CODIGO,SIN_CODIGO,aeródromo,CORRALITO/LOMAS DEL ESPINILLO,"32° 5'17""S  64°10'11""W",-64.16972222,-32.08805556,439.5,Metros,Río Tercero,9.0,NNO,PRIVADO,NOCONTROL,RANO,SACF,aeroapp,Nacional,NO,NO,Córdoba,NO
CLH,SAVH,LHS,aeródromo,LAS HERAS,"46°32'19""S  68°57'57""W",-68.96583,-46.53848,330.0,Metros,Las Heras,2.0,O,PUBLICO,NOCONTROL,RASU,SAVF,civil,Nacional,NO,NO,Santa Cruz,NO
CLI,SIN_CODIGO,SIN_CODIGO,aeródromo,CALILEGUA,"23°46'54""S  64°44'59""W",-64.74972222,-23.78166667,442.0,Metros,Calilegua,1.7,E,PRIVADO,NOCONTROL,RANO,SACF,civil,Nacional,NO,NO,Jujuy,NO
CLN,SIN_CODIGO,SIN_CODIGO,aeródromo,COLÓN,"32°15'39""S  58° 9'22""W",-58.15611111,-32.26083333,20.0,Metros,Colón,5.0,S,PUBLICO,NOCONTROL,RACE,SAEF,civil,Nacional,NO,NO,Entre Ríos,NO
CLT,SIN_CODIGO,CCT,aeródromo,COLONIA CATRIEL,"37°54'29""S  67°49'44""W",-67.82881,-37.90819,313.0,Metros,Catriel,4.0,SSO,PUBLICO,NOCONTROL,RACE,SAEF,civil,Nacional,NO,NO,Río Negro,NO
CNA,SIN_CODIGO,SIN_CODIGO,aeródromo,CAÑUELAS,"35° 6'42""S  58°43'35""W",-58.72638889,-35.11166667,30.0,Metros,Cañuelas,5.0,SE,PUBLICO,NOCONTROL,RACE,SAEF,civil,Nacional,NO,NO,Buenos Aires,NO
CNO,SIN_CODIGO,SIN_CODIGO,aeródromo,CARMEN DE ARECO,"34°25' 5""S  59°52'28""W",-59.87444444,-34.41805556,49.0,Metros,Carmen de Areco,5.0,SO,PUBLICO,NOCONTROL,RACE,SAEF,civil,Nacional,NO,NO,Buenos Aires,NO
CNS,SIN_CODIGO,SIN_CODIGO,aeródromo,CANALS,"33°33'45""S  62°52' 9""W",-62.86911,-33.56247,116.0,Metros,Canals,0.5,E,PRIVADO,NOCONTROL,RANO,SAEF,civil,Nacional,NO,NO,Córdoba,NO
COA,SIN_CODIGO,SIN_CODIGO,aeródromo,ARIAS,"33°39'52""S  62°22'30""W",-62.37505556,-33.66431111,121.5,Metros,Arias,3.0,SE,PRIVADO,NOCONTROL,RACE,SAEF,aeroapp,Nacional,NO,NO,Córdoba,NO
COL,SAZQ,SIN_CODIGO,aeródromo,RÍO COLORADO,"38°59'42""S  64° 8'25""W",-64.14027778,-38.995,84.0,Metros,Río Colorado,5.0,NO,PRIVADO,NOCONTROL,RACE,SAEF,desconocido,Nacional,NO,NO,Río Negro,NO
CON,SIN_CODIGO,SIN_CODIGO,aeródromo,COLÓN,"33°55'21""S  61° 2'47""W",-61.04638889,-33.9225,90.0,Metros,Colón,5.0,SE,PUBLICO,NOCONTROL,RACE,SAEF,civil,Nacional,NO,NO,Buenos Aires,NO
CPO,SADO,SIN_CODIGO,aeródromo,CAMPO DE MAYO,"34°32' 4""S  58°40'19""W",-58.672,-34.53433,24.0,Metros,Estación San Miguel,3.5,ENE,PRIVADO,NOCONTROL,RACE,SAEF,mil,Nacional,NO,NO,Buenos Aires,NO
CQN,SIN_CODIGO,SIN_CODIGO,aeródromo,COSQUIN/SANTA MARÍA,"31°17' 9""S  64°27'20""W",-64.45555556,-31.28583333,700.0,Metros,Cosquín,4.5,SSE,PRIVADO,NOCONTROL,RANO,SACF,civil,Nacional,NO,NO,Córdoba,NO
CQZ,SIN_CODIGO,SIN_CODIGO,aeródromo,CAÑADA QUIROZ,"27°32'59""S  58°43' 3""W",-58.7175,-27.54972222,55.0,Metros,Corrientes,15.0,SE,PRIVADO,NOCONTROL,RANO,SARR,civil,Nacional,NO,NO,Corrientes,NO
CRD,SIN_CODIGO,SIN_CODIGO,aeródromo,CONCORDIA/AEROCLUB,"31°18'14""S  58° 0'54""W",-58.015,-31.30388889,90.0,Metros,Concordia,10.0,N,PUBLICO,NOCONTROL,RACE,SAEF,civil,Nacional,NO,NO,Entre Ríos,NO
CRR,SARC,CNQ,aeródromo,CORRIENTES,"27°26'44""S  58°45'43""W",-58.76194444,-27.44555556,61.5,Metros,Corrientes,7.5,E,PUBLICO,CONTROL,RANE,SARR,civil,Internacional,SI,NO,Corrientes,NO
CRV,SAVC,CRD,aeródromo,COMODORO RIVADAVIA/GRAL. E. MOSCONI,"45°47' 7""S  67°27'56""W",-67.46555556,-45.78527778,57.6,Metros,Comodoro Rivadavia,11.0,N,PUBLICO,CONTROL,RASU,SAVF,joint,Internacional,SI,SI,Chubut,NO
CSA,SIN_CODIGO,SIN_CODIGO,aeródromo,CALCHÍN/AEROCAMPO SERVICIOS AÉREOS,"31°39'27""S  63°16'34""W",-63.27608,-31.65737,202.0,Metros,Calchín,5.0,E,PRIVADO,NOCONTROL,RANO,SACF,aeroapp,Nacional,NO,NO,Córdoba,NO
CSJ,SIN_CODIGO,SIN_CODIGO,aeródromo,MORTEROS/CAMPO SAN JOSÉ,"30°46'37""S  62° 0'53""W",-62.01466,-30.77697,101.0,Metros,Morteros,6.0,SO,PRIVADO,NOCONTROL,RANO,SACF,aeroapp,Nacional,NO,NO,Córdoba,NO
CSP,SIN_CODIGO,SIN_CODIGO,aeródromo,CAPITÁN SARMIENTO/SAN PATRICIO,"34° 2'25""S  59°41'40""W",-59.69444444,-34.04027778,45.0,Metros,Capitán Sarmiento,16.7,NNE,PRIVADO,NOCONTROL,RACE,SAEF,civil,Nacional,NO,NO,Buenos Aires,NO
CSQ,SIN_CODIGO,SIN_CODIGO,aeródromo,CAPITÁN SARMIENTO/QUEBRACHO HERRADO,"34° 9'22""S  59°52'24""W",-59.87336,-34.15622,52.0,Metros,Capitán Sarmiento,8.0,O,PRIVADO,NOCONTROL,RACE,SAEF,civil,Nacional,NO,NO,Buenos Aires,NO
CSR,SIN_CODIGO,SIN_CODIGO,aeródromo,CARLOS CASARES,"35°37'47""S  61°23'38""W",-61.39401,-35.6298,80.0,Metros,Carlos Casares,2.0,O,PUBLICO,NOCONTROL,RACE,SAEF,civil,Nacional,NO,NO,Buenos Aires,NO
CSU,SIN_CODIGO,SIN_CODIGO,aeródromo,CHAJARI/SUR,"30°48' 8""S  58° 0'51""W",-58.01428056,-30.80216944,69.0,Metros,Chajarí,5.0,SSW,PRIVADO,NOCONTROL,RACE,SAEF,civil,Nacional,NO,NO,Entre Ríos,NO
CTA,SIN_CODIGO,SIN_CODIGO,aeródromo,COPETONAS,"38°44'37""S  60°33'12""W",-60.55343,-38.74354,51.0,Metros,Copetonas,9.0,OSO,PRIVADO,NOCONTROL,RACE,SAEF,civil,Nacional,NO,NO,Buenos Aires,NO
CTP,SIN_CODIGO,SIN_CODIGO,aeródromo,CATRILO/ESTABLECIMIENTO LA MARIA PILAR,"36°29'19""S  63°25'59""W",-63.43305556,-36.48861111,125.0,Metros,Catrilo,9.0,S,PRIVADO,NOCONTROL,RACE,SAEF,civil,Nacional,NO,NO,La Pampa,NO
CTS,SIN_CODIGO,SIN_CODIGO,aeródromo,CAPITÁN SARMIENTO,"34° 9'52""S  59°43'53""W",-59.73148,-34.16435,49.0,Metros,Capitán Sarmiento,3.0,E,PUBLICO,NOCONTROL,RACE,SAEF,civil,Nacional,NO,NO,Buenos Aires,NO
CUA,SIN_CODIGO,SIN_CODIGO,aeródromo,RÍO CUARTO/AEROCLUB,"33° 9'38""S  64°20'14""W",-64.33722222,-33.16055556,424.0,Metros,Río Cuarto,4.0,SSE,PUBLICO,NOCONTROL,RANO,SACF,desconocido,Nacional,NO,NO,Córdoba,NO
CUM,SACC,LCM,aeródromo,LA CUMBRE,"31° 0'21""S  64°31'56""W",-64.5321,-31.00589,1138.0,Metros,La Cumbre,4.5,SO,PUBLICO,NOCONTROL,RANO,SACF,civil,Nacional,NO,NO,Córdoba,NO
CUT,SAZW,CUT,aeródromo,CUTRAL-CO,"38°56'23""S  69°15'54""W",-69.265,-38.93972222,650.0,Metros,Cutral Có,2.0,OSO,PUBLICO,AERADIO,RACE,SAEF,civil,Nacional,SI,NO,Neuquén,NO
CVV,SIN_CODIGO,SIN_CODIGO,aeródromo,VILLA VALERIA,"34°21'23""S  64°54' 4""W",-64.90111111,-34.35638889,290.0,Metros,Villa Valeria,2.0,SE,PRIVADO,NOCONTROL,RANO,SACF,aeroapp,Nacional,NO,NO,Córdoba,NO
CZU,SIN_CODIGO,SIN_CODIGO,aeródromo,CURUZÚ CUATIÁ/AEROCLUB,"29°46'44""S  58° 5'49""W",-58.09694444,-29.77888889,80.0,Metros,Curuzú Cuatiá,1.5,NO,PUBLICO,NOCONTROL,RANE,SARR,civil,Nacional,NO,NO,Corrientes,NO
DAR,SIN_CODIGO,SIN_CODIGO,aeródromo,DARREGUEIRA,"37°42'44""S  63° 9'45""W",-63.16253,-37.7122,198.0,Metros,Darregueira,1.5,SSO,PRIVADO,NOCONTROL,RACE,SAEF,civil,Nacional,NO,NO,Buenos Aires,NO
DFR,SIN_CODIGO,SIN_CODIGO,aeródromo,DAIREAUX/FUMIGACIONES RODRIGUEZ,"36°35'27""S  61°46'30""W",-61.77504,-36.59076,113.0,Metros,Daireaux,2.0,ONO,PUBLICO,NOCONTROL,RACE,SAEF,aeroapp,Nacional,NO,NO,Buenos Aires,NO
DIA,SAAC,COC,aeródromo,CONCORDIA/COMODORO PIERRESTEGUI,"31°17'49""S  57°59'48""W",-57.99666667,-31.29694444,34.0,Metros,Concordia,12.0,N,PUBLICO,CONTROL,RACE,SAEF,civil,Nacional,SI,NO,Entre Ríos,NO
DIL,SAZT,TDL,aeródromo,TANDIL/HÉROES DE MALVINAS,"37°14' 4""S  59°13'43""W",-59.22858611,-37.23437778,175.0,Metros,Tandil,13.0,NO,PUBLICO,CONTROL,RACE,SAEF,desconocido,Nacional,SI,NO,Buenos Aires,NO
DIO,SIN_CODIGO,SIN_CODIGO,aeródromo,TANDIL/COMANDANTE EDUARDO A. OLIVERO,"37°20'48""S  58°58'58""W",-58.98268,-37.34678,193.0,Metros,Tandil,15.0,ESE,PUBLICO,NOCONTROL,RACE,SAEF,desconocido,Nacional,NO,NO,Buenos Aires,NO
DOF,SIN_CODIGO,SIN_CODIGO,aeródromo,MARTINEZ DE HOZ/FUMIGACIONES ORTEGA,"35°16'41""S  61°33'13""W",-61.55366,-35.27799,89.0,Metros,Coronel Martinez de Hoz,8.0,ENE,PRIVADO,NOCONTROL,RACE,SAEF,aeroapp,Nacional,NO,NO,Buenos Aires,NO
DOL,SAZD,SIN_CODIGO,aeródromo,DOLORES,"36°19'12""S  57°43'14""W",-57.72055556,-36.32,10.0,Metros,Dolores,4.0,O,PUBLICO,NOCONTROL,RACE,SAEF,civil,Nacional,NO,NO,Buenos Aires,NO
DOP,SIN_CODIGO,SIN_CODIGO,aeródromo,MENDOZA/LA PUNTILLA,"32°57'45""S  68°52'26""W",-68.87395,-32.96254,942.0,Metros,Ap. El Plumerillo,8.5,SO,PUBLICO,NOCONTROL,RANO,SAMF,desconocido,Nacional,NO,NO,Mendoza,NO
DOR,SIN_CODIGO,SIN_CODIGO,aeródromo,CORONEL DORREGO,"38°44'28""S  61°15'21""W",-61.25583333,-38.74111111,120.0,Metros,Coronel Dorrego,2.0,SE,PUBLICO,NOCONTROL,RACE,SAEF,civil,Nacional,NO,NO,Buenos Aires,NO
DOZ,SAME,MDZ,aeródromo,MENDOZA/EL PLUMERILLO,"32°49'54""S  68°47'34""W",-68.79277778,-32.83166667,704.0,Metros,Mendoza,8.0,NE,PUBLICO,CONTROL,RANO,SAMF,desconocido,Internacional,SI,SI,Mendoza,NO
DRA,SIN_CODIGO,SIN_CODIGO,aeródromo,SAAVEDRA,"37°44'59""S  62°20' 2""W",-62.33392,-37.74961,317.0,Metros,Saavedra,3.0,NNE,PUBLICO,NOCONTROL,RACE,SAEF,desconocido,Nacional,NO,NO,Buenos Aires,NO
DRX,SIN_CODIGO,SIN_CODIGO,aeródromo,DAIREAUX,"36°34'58""S  61°47' 3""W",-61.78416667,-36.58277778,116.0,Metros,Daireaux,3.5,O,PRIVADO,NOCONTROL,RACE,SAEF,civil,Nacional,NO,NO,Buenos Aires,NO
DRY,SAVY,PMY,aeródromo,PUERTO MADRYN/EL TEHUELCHE,"42°45'33""S  65° 6'10""W",-65.10277778,-42.75916667,130.0,Metros,Puerto Madryn,5.3,ONO,PUBLICO,CONTROL,RASU,SAVF,desconocido,Nacional,SI,SI,Chubut,NO
DTE,SIN_CODIGO,SIN_CODIGO,aeródromo,DIAMANTE,"32° 0'58""S  60°34'60""W",-60.58329,-32.01621,75.0,Metros,Diamante,4.5,NNE,PUBLICO,NOCONTROL,RACE,SAEF,civil,Nacional,NO,NO,Entre Ríos,NO
EAU,SAWO,SIN_CODIGO,aeródromo,USHUAIA/EST. AERONAVAL,"54°49'22""S  68°18'15""W",-68.30416667,-54.82277778,6.0,Metros,Ushuaia,1.0,S,PRIVADO,NOCONTROL,RASU,SAVF,desconocido,Nacional,NO,NO,Tierra Del Fuego Antártida E Islas Del Atlántico Sur,NO
EBF,SIN_CODIGO,SIN_CODIGO,aeródromo,ESPERANZA/ANIBAL BRIZI,"31°24'20""S  60°53'58""W",-60.89944444,-31.40555556,39.0,Metros,Esperanza,1.5,N,PRIVADO,NOCONTROL,RACE,SAEF,aeroapp,Nacional,NO,NO,Santa Fé,NO
ECA,SAWC,FTE,aeródromo,EL CALAFATE,"50°16'48""S  72° 3'11""W",-72.05305556,-50.28,204.0,Metros,El Calafate,16.6,ENE,PUBLICO,CONTROL,RASU,SAVF,civil,Nacional,SI,SI,Santa Cruz,NO
ECX,SIN_CODIGO,SIN_CODIGO,aeródromo,EDUARDO CASTEX,"35°52'56""S  64°16'30""W",-64.275,-35.88222222,183.0,Metros,Eduardo Castex,4.5,NE,PUBLICO,NOCONTROL,RACE,SAEF,civil,Nacional,NO,NO,La Pampa,NO
EDO,SACD,SIN_CODIGO,aeródromo,CORONEL OLMEDO,"31°29'12""S  64° 8'27""W",-64.14083,-31.48679,432.0,Metros,Coronel Olmedo,1.2,S,PUBLICO,NOCONTROL,RANO,SACF,civil,Nacional,NO,NO,Córdoba,NO
EGO,SIN_CODIGO,SIN_CODIGO,aeródromo,LAS PAREJAS/EL GAUCHO,"32°37'46""S  61°32'40""W",-61.54444444,-32.62944444,105.0,Metros,Las Parejas,6.0,NNO,PRIVADO,NOCONTROL,RACE,SAEF,civil,Nacional,NO,NO,Santa Fé,NO
ELC,SIN_CODIGO,SIN_CODIGO,aeródromo,VEINTICINCO DE MAYO/ESTANCIA LA CRIOLLA,"35°32'12""S  60° 7'45""W",-60.12916667,-35.53666667,48.0,Metros,25 de Mayo,12.0,SE,PRIVADO,NOCONTROL,RACE,SAEF,civil,Nacional,NO,NO,Buenos Aires,NO
ELD,SATD,ELO,aeródromo,ELDORADO,"26°23'49""S  54°34'29""W",-54.57472222,-26.39694444,209.0,Metros,Eldorado,5.0,NE,PUBLICO,AERADIO,RANE,SARR,civil,Nacional,NO,NO,Misiones,NO
ELL,SIN_CODIGO,SIN_CODIGO,aeródromo,MAR DEL SUR/EA. LUCILA,"38°18'31""S  58° 6'18""W",-58.105,-38.30861111,22.0,Metros,Mar del Sur,5.0,SE,PRIVADO,NOCONTROL,RACE,SAEF,desconocido,Nacional,NO,NO,Buenos Aires,NO
ELP,SIN_CODIGO,SIN_CODIGO,aeródromo,SANTA ROSA/EL PAMPERO,"36°35'50""S  64°11'12""W",-64.18672,-36.59712,178.0,Metros,Santa Rosa,10.0,NE,PUBLICO,NOCONTROL,RACE,SAEF,desconocido,Nacional,NO,NO,La Pampa,NO
ELZ,SIN_CODIGO,SIN_CODIGO,aeródromo,ELIZALDE,"34°58'30""S  57°57'45""W",-57.9625,-34.975,7.0,Metros,Rufino de Elizalde,2.0,SSO,PUBLICO,NOCONTROL,RACE,SAEF,civil,Nacional,NO,NO,Buenos Aires,NO
EMA,SAVD,EMX,aeródromo,EL MAITÉN,"42° 1'48""S  71°10'15""W",-71.17083333,-42.03,718.0,Metros,El Maitén,3.0,N,PUBLICO,AERADIO,RASU,SAVF,civil,Nacional,NO,NO,Chubut,NO
EML,SIN_CODIGO,SIN_CODIGO,aeródromo,CORONEL BRANDSEN/EL MANANTIAL,"35°11'40""S  58°21'36""W",-58.35994,-35.19441,15.0,Metros,Coronel Brandsen,12.5,OSO,PRIVADO,NOCONTROL,RACE,SAEF,civil,Nacional,NO,NO,Buenos Aires,NO
ENO,SADJ,SIN_CODIGO,aeródromo,MARIANO MORENO,"34°33'36""S  58°47'23""W",-58.78972222,-34.56,32.0,Metros,José C. Paz,7.0,S,PUBLICO,CONTROL,RACE,SAEF,desconocido,Nacional,NO,NO,Buenos Aires,NO
ENV,SIN_CODIGO,SIN_CODIGO,aeródromo,RIACHUELO/NUEVA VALENCIA,"27°35'15""S  58°49' 8""W",-58.819,-27.58744,57.0,Metros,Corrientes,13.5,S,PRIVADO,NOCONTROL,RANE,SARR,desconocido,Nacional,NO,NO,Corrientes,NO
EPZ,SIN_CODIGO,SIN_CODIGO,aeródromo,ESPERANZA,"31°28'24""S  60°50'43""W",-60.84527778,-31.47333333,38.0,Metros,Esperanza,8.0,E,PUBLICO,NOCONTROL,RACE,SAEF,civil,Nacional,NO,NO,Santa Fé,NO
ERE,SANW,CRR,aeródromo,CERES,"29°52'18""S  61°55'37""W",-61.92696,-29.87161,87.0,Metros,Ceres,0.7,NE,PUBLICO,AERADIO,RANO,SACF,civil,Nacional,NO,NO,Santa Fé,NO
ERT,SIN_CODIGO,SIN_CODIGO,aeródromo,VILLA MERCEDES/EA. DON ROBERTO,"34° 0' 4""S  65°21'60""W",-65.36657,-34.0011,436.0,Metros,Villa Mercedes,37.0,SSE,PRIVADO,NOCONTROL,RANO,SAMF,desconocido,Nacional,NO,NO,San Luis,NO
ESN,SIN_CODIGO,SIN_CODIGO,aeródromo,ESQUINA,"30° 2'51""S  59°32' 7""W",-59.53521,-30.04762,39.0,Metros,Esquina,4.0,S,PUBLICO,NOCONTROL,RANE,SARR,civil,Nacional,NO,NO,Corrientes,NO
ESQ,SAVE,EQS,aeródromo,ESQUEL/BRIGADIER GENERAL ANTONIO PARODI,"42°54'14""S  71° 8' 8""W",-71.13554,-42.90381,799.0,Metros,Esquel,12.0,ESE,PUBLICO,CONTROL,RASU,SAVF,civil,Nacional,SI,SI,Chubut,NO
ESR,SIN_CODIGO,SIN_CODIGO,aeródromo,EL ESPINILLO/ESTANCIA SAN RAFAEL,"25° 2'36""S  58°35'29""W",-58.59132,-25.04338,88.0,Metros,El Espinillo,8.0,SE,PRIVADO,NOCONTROL,RANE,SARR,civil,Nacional,NO,NO,Formosa,NO
ETB,SIN_CODIGO,SIN_CODIGO,aeródromo,EL TREBOL,"32°12'58""S  61°42'59""W",-61.71634,-32.2162,92.0,Metros,El Trebol,5.0,O,PUBLICO,NOCONTROL,RACE,SAEF,civil,Nacional,NO,NO,Santa Fé,NO
EVC,SIN_CODIGO,SIN_CODIGO,aeródromo,GDOR. VALENTIN VIRASORO/EA. VILLA CORINA,"28° 2'28""S  56° 4'16""W",-56.07106,-28.04099,123.0,Metros,Gobernador Valentín Virasoro,5.0,O,PRIVADO,NOCONTROL,RANE,SARR,civil,Nacional,NO,NO,Corrientes,NO
EZA,SIN_CODIGO,SIN_CODIGO,aeródromo,LOS CONQUISTADORES/BUENA ESPERANZA,"30°31'14""S  58°23'59""W",-58.39961,-30.52042,75.0,Metros,Los Conquistadores,8.0,NE,PRIVADO,NOCONTROL,RANE,SAEF,desconocido,Nacional,NO,NO,Entre Ríos,NO
EZE,SAEZ,EZE,aeródromo,EZEIZA/MINISTRO PISTARINI,"34°49'20""S  58°32' 9""W",-58.53583333,-34.82222222,20.5,Metros,Capital Federal,22.0,SSO,PUBLICO,CONTROL,RACE,SAEF,civil,Internacional,SI,SI,Buenos Aires,NO
EZP,SIN_CODIGO,SIN_CODIGO,aeródromo,EZPELETA,"34°44'47""S  58°12'12""W",-58.20333333,-34.74638889,3.0,Metros,Ezpeleta,3.0,ENE,PUBLICO,NOCONTROL,RACE,SAEF,civil,Nacional,NO,NO,Buenos Aires,NO
FAE,SIN_CODIGO,SIN_CODIGO,aeródromo,FIRMAT/AEROCLUB,"33°25'45""S  61°30'40""W",-61.51124,-33.42909,105.0,Metros,Firmat,3.0,NO,PRIVADO,NOCONTROL,RACE,SAEF,civil,Nacional,NO,NO,Santa Fé,NO
FAG,SIN_CODIGO,SIN_CODIGO,aeródromo,FEDERAL/LA ANGELITA,"30°51' 8""S  58°42'24""W",-58.70666667,-30.85222222,70.0,Metros,Federal,13.0,NNE,PRIVADO,NOCONTROL,RACE,SAEF,civil,Nacional,NO,NO,Entre Ríos,NO
FDD,SIN_CODIGO,SIN_CODIGO,aeródromo,FORTÍN DRAGONES/EL DESAFÍO,"23°14'33""S  63°19'23""W",-63.32305556,-23.2425,244.0,Metros,Dragones,2.0,NE,PRIVADO,NOCONTROL,RANO,SACF,civil,Nacional,NO,NO,Salta,NO
FDO,SADF,FDO,aeródromo,SAN FERNANDO,"34°27'16""S  58°35'27""W",-58.59091,-34.45454,3.0,Metros,San Fernando,2.0,SO,PUBLICO,CONTROL,RACE,SAEF,desconocido,Internacional,SI,SI,Buenos Aires,NO
FIM,SIN_CODIGO,SIN_CODIGO,aeródromo,FIRMAT,"33°28' 5""S  61°30' 4""W",-61.50111111,-33.46805556,105.0,Metros,Firmat,1.7,SO,PRIVADO,NOCONTROL,RACE,SAEF,aeroapp,Nacional,NO,NO,Santa Fé,NO
FLO,SIN_CODIGO,SIN_CODIGO,aeródromo,LAS FLORES,"36° 3'59""S  59° 6' 2""W",-59.10055556,-36.06638889,34.0,Metros,Las Flores,5.0,S,PUBLICO,NOCONTROL,RACE,SAEF,civil,Nacional,NO,NO,Buenos Aires,NO
FMA,SACA,SIN_CODIGO,aeródromo,CÓRDOBA/CAPITÁN D. OMAR DARIO GELARDI,"31°26'31""S  64°15'30""W",-64.25847,-31.44195,486.0,Metros,Córdoba,7.0,SO,PUBLICO,AERADIO,RANO,SACF,mil,Nacional,NO,NO,Córdoba,NO
FOR,SIN_CODIGO,SIN_CODIGO,aeródromo,FORMOSA/AEROCLUB,"26°18' 5""S  58°17'54""W",-58.29833333,-26.30138889,70.0,Metros,Formosa,15.0,SO,PUBLICO,AERADIO,RANE,SARR,civil,Nacional,NO,NO,Formosa,NO
FRA,SIN_CODIGO,SIN_CODIGO,aeródromo,SAN FRANCISCO,"31°24'47""S  62° 7'59""W",-62.13305556,-31.41305556,114.0,Metros,San Francisco,5.0,ONO,PUBLICO,NOCONTROL,RANO,SACF,desconocido,Nacional,NO,NO,Córdoba,NO
FRO,SIN_CODIGO,SIN_CODIGO,aeródromo,ROSARIO DE LA FRONTERA,"25°49'34""S  64°57'48""W",-64.96323,-25.82616,837.0,Metros,Rosario de la Frontera,3.6,S,PRIVADO,NOCONTROL,RANO,SACF,civil,Nacional,NO,NO,Salta,NO
FRS,SIN_CODIGO,SIN_CODIGO,aeródromo,FRÍAS,"28°37'43""S  65° 6'48""W",-65.11333333,-28.62861111,330.0,Metros,Frías,2.0,NE,PUBLICO,NOCONTROL,RANO,SACF,civil,Nacional,NO,NO,Santiago Del Estero,NO
FSA,SARF,FMA,aeródromo,FORMOSA,"26°12'46""S  58°13'41""W",-58.22805556,-26.21277778,59.0,Metros,Formosa,7.0,S,PUBLICO,CONTROL,RANE,SARR,civil,Internacional,SI,SI,Formosa,NO
FUN,SIN_CODIGO,SIN_CODIGO,aeródromo,DEAN FUNES,"30°22'46""S  64°22'47""W",-64.37973,-30.37934,689.0,Metros,Dean Funes,4.5,NNO,PUBLICO,NOCONTROL,RANO,SACF,civil,Nacional,NO,NO,Córdoba,NO
FVA,SIN_CODIGO,SIN_CODIGO,aeródromo,FLORENCIO VARELA/EL PÁJARO,"34°49'36""S  58°19' 0""W",-58.31666667,-34.82666667,16.0,Metros,Florencio Varela,3.5,SO,PUBLICO,NOCONTROL,RACE,SAEF,civil,Nacional,NO,NO,Buenos Aires,NO
GAA,SIN_CODIGO,SIN_CODIGO,aeródromo,GUALEGUAY/AGROAEREO GUALEGUAY,"33° 2'18""S  59°26'24""W",-59.43992,-33.03832,16.0,Metros,Gualeguay,17.0,NO,PRIVADO,NOCONTROL,RACE,SAEF,civil,Nacional,NO,NO,Entre Ríos,NO
GAI,SIN_CODIGO,SIN_CODIGO,aeródromo,GANCEDO/AGROAIRE,"27°29'41""S  61°39'32""W",-61.65877,-27.49486,115.0,Metros,Gancedo,1.0,SE,PRIVADO,NOCONTROL,RANO,SACF,civil,Nacional,NO,NO,Chaco,NO
GAL,SAWG,RGL,aeródromo,RÍO GALLEGOS/PILOTO CIVIL NORBERTO FERNANDEZ,"51°36'32""S  69°18'44""W",-69.31217,-51.60881,19.0,Metros,Río Gallegos,4.5,OSO,PUBLICO,CONTROL,RASU,SAVF,desconocido,Internacional,SI,SI,Santa Cruz,NO
GAR,SIN_CODIGO,SIN_CODIGO,aeródromo,GENERAL ALVEAR,"35°58'44""S  59°54'25""W",-59.90699,-35.97895,50.0,Metros,General Alvear,11.5,NE,PRIVADO,NOCONTROL,RACE,SAEF,civil,Nacional,NO,NO,Buenos Aires,NO
GAS,SIN_CODIGO,SIN_CODIGO,aeródromo,GENERAL VILLEGAS,"34°59'46""S  62°59'56""W",-62.99883,-34.99615,117.0,Metros,General Villegas,4.5,NNE,PUBLICO,NOCONTROL,RACE,SAEF,civil,Nacional,NO,NO,Buenos Aires,NO
GBE,SIN_CODIGO,SIN_CODIGO,aeródromo,GENERAL BELGRANO,"35°45' 7""S  58°27'48""W",-58.46327,-35.75191,12.0,Metros,General Belgrano,3.0,E,PRIVADO,NOCONTROL,RACE,SAEF,civil,Nacional,NO,NO,Buenos Aires,NO
GBL,SIN_CODIGO,SIN_CODIGO,aeródromo,SALTA/GENERAL BELGRANO,"24°44'45""S  65°25' 8""W",-65.41888889,-24.74583333,1261.0,Metros,Salta,3.0,N,PUBLICO,NOCONTROL,RANO,SACF,desconocido,Nacional,NO,NO,Salta,NO
GCR,SIN_CODIGO,SIN_CODIGO,aeródromo,GOBERNADOR CRESPO/AEROCLUB,"30°23'14""S  60°22' 9""W",-60.36916667,-30.38722222,52.0,Metros,Gobernador Crespo,4.5,SE,PUBLICO,NOCONTROL,RANO,SACF,civil,Nacional,NO,NO,Santa Fé,NO
GDH,SIN_CODIGO,SIN_CODIGO,aeródromo,GENERAL DEHEZA,"32°44'42""S  63°47'46""W",-63.79611111,-32.745,274.0,Metros,General Deheza,0.3,NE,PUBLICO,NOCONTROL,RANO,SACF,civil,Nacional,NO,NO,Córdoba,NO
GDO,SIN_CODIGO,SIN_CODIGO,aeródromo,GANCEDO/PULVERIZACIONES.M.H.,"27°28'42""S  61°38'40""W",-61.64441,-27.47845,97.0,Metros,Gancedo,3.0,E,PRIVADO,NOCONTROL,RANO,SACF,aeroapp,Nacional,NO,NO,Chaco,NO
GEP,SIN_CODIGO,SIN_CODIGO,aeródromo,GUALEGUAYCHÚ/EL POTRERO,"32°58'29""S  58°15'14""W",-58.25388889,-32.97472222,27.0,Metros,Gualeguaychú,25.0,ONO,PRIVADO,NOCONTROL,RACE,SAEF,civil,Nacional,NO,NO,Entre Ríos,NO
GES,SAZV,VLG,aeródromo,VILLA GESELL,"37°14' 4""S  57° 1'26""W",-57.02388889,-37.23444444,10.0,Metros,Villa Gesell,3.0,O,PUBLICO,AERADIO,RACE,SAEF,desconocido,Nacional,SI,NO,Buenos Aires,NO
GEZ,SIN_CODIGO,SIN_CODIGO,aeródromo,GENERAL RODRIGUEZ/EAA,"34°40'49""S  59° 2' 9""W",-59.03583333,-34.68027778,28.0,Metros,General Rodriguez,10.0,SE,PUBLICO,NOCONTROL,RACE,SAEF,civil,Nacional,NO,NO,Buenos Aires,NO
GIL,SIN_CODIGO,SIN_CODIGO,aeródromo,SAN ANDRÉS DE GILES,"34°28'13""S  59°25'29""W",-59.42472222,-34.47027778,51.0,Metros,San Andrés de Giles,3.0,SE,PUBLICO,NOCONTROL,RACE,SAEF,desconocido,Nacional,NO,NO,Buenos Aires,NO
GIT,SIN_CODIGO,SIN_CODIGO,aeródromo,GOYA/ITALAVIATION,"29° 9'31""S  59°10'46""W",-59.17949,-29.15852,64.0,Metros,Goya,7.0,E,PRIVADO,NOCONTROL,RANE,SARR,aeroapp,Nacional,NO,NO,Corrientes,NO
GLH,SIN_CODIGO,SIN_CODIGO,aeródromo,GENERAL LAS HERAS,"34°55'14""S  58°54'59""W",-58.91638889,-34.92055556,35.0,Metros,General Las Heras,3.0,E,PUBLICO,NOCONTROL,RACE,SAEF,civil,Nacional,NO,NO,Buenos Aires,NO
GLM,SIN_CODIGO,SIN_CODIGO,aeródromo,GUALEGUAYCHÚ/BLM CABAÑAS,"32°58'39""S  58°31'20""W",-58.52222222,-32.9775,7.17,Metros,Gualeguaychú,2.2,OSO,PRIVADO,NOCONTROL,RACE,SAEF,civil,Nacional,NO,NO,Entre Ríos,NO
GLP,SIN_CODIGO,SIN_CODIGO,aeródromo,GUALEGUAYCHÚ/EA. LA PROVIDENCIA,"32°56'29""S  58°33'53""W",-58.56483,-32.9414,20.0,Metros,Gualeguaychú,8.0,N,PRIVADO,NOCONTROL,RACE,SAEF,civil,Nacional,NO,NO,Entre Ríos,NO
GNA,SAMA,SIN_CODIGO,aeródromo,GENERAL ALVEAR,"35° 3'34""S  67°41'35""W",-67.69319,-35.05939,454.0,Metros,General Alvear,7.5,S,PUBLICO,NOCONTROL,RANO,SAMF,civil,Nacional,NO,NO,Mendoza,NO
GNR,SAHR,GNR,aeródromo,GENERAL ROCA/DR. ARTURO HUMBERTO ILLIA,"39° 0' 0""S  67°37'11""W",-67.61972222,-39.0,260.0,Metros,General Roca,4.8,NO,PUBLICO,AERADIO,RACE,SAEF,civil,Nacional,SI,NO,Río Negro,NO
GNV,SIN_CODIGO,SIN_CODIGO,aeródromo,GENERAL VIAMONTE/LOS TOLDOS,"34°58'38""S  61° 1'15""W",-61.02083333,-34.97722222,72.0,Metros,General Viamonte,3.1,NE,PUBLICO,NOCONTROL,RACE,SAEF,civil,Nacional,NO,NO,Buenos Aires,NO
GOC,SIN_CODIGO,SIN_CODIGO,aeródromo,GOBERNADOR CASTRO/EL GIRASOL,"33°40' 7""S  59°50' 3""W",-59.83415,-33.66857,28.0,Metros,Gobernador Castro,4.0,SE,PRIVADO,NOCONTROL,RACE,SAEF,civil,Nacional,NO,NO,Buenos Aires,NO
GOM,SIN_CODIGO,SIN_CODIGO,aeródromo,CAÑADA DE GÓMEZ,"32°48'32""S  61°21'57""W",-61.36579,-32.80887,82.0,Metros,Cañada de Gómez,1.5,E,PUBLICO,NOCONTROL,RACE,SAEF,civil,Nacional,NO,NO,Santa Fé,NO
GOR,SACT,SIN_CODIGO,aeródromo,GOBERNADOR GORDILLO/CHAMICAL,"30°20'39""S  66°17'39""W",-66.29403,-30.34416,458.0,Metros,El Chamical,2.0,E,PUBLICO,AERADIO,RANO,SACF,civil,Nacional,NO,NO,La Rioja,NO
GOY,SATG,OYA,aeródromo,GOYA,"29° 6'21""S  59°13' 7""W",-59.21874,-29.10595,39.0,Metros,Goya,6.0,NE,PUBLICO,CONTROL,RANE,SARR,civil,Nacional,NO,NO,Corrientes,NO
GOZ,SIN_CODIGO,SIN_CODIGO,aeródromo,GÓMEZ,"35° 5'44""S  58° 5' 9""W",-58.0858,-35.09556,19.0,Metros,Gómez,8.0,SE,PUBLICO,NOCONTROL,RACE,SAEF,civil,Nacional,NO,NO,Buenos Aires,NO
GPF,SIN_CODIGO,SIN_CODIGO,aeródromo,GENERAL PICO/CEREALES ANAHÍ RUCA,"35°40'25""S  63°43' 5""W",-63.71805556,-35.67361111,139.0,Metros,General Pico,3.0,E,PRIVADO,NOCONTROL,RACE,SAEF,aeroapp,Nacional,NO,NO,La Pampa,NO
GPI,SAZG,GPO,aeródromo,GENERAL PICO,"35°41'41""S  63°45'32""W",-63.75888889,-35.69472222,140.0,Metros,General Pico,3.5,SO,PUBLICO,AERADIO,RACE,SAEF,civil,Nacional,SI,SI,La Pampa,NO
GPK,SIN_CODIGO,SIN_CODIGO,aeródromo,GENERAL PINEDO/KALBERMATTER,"27°15'37""S  61°28'28""W",-61.47444444,-27.26027778,101.0,Metros,General Pinedo,20.0,NO,PRIVADO,NOCONTROL,RANE,SARR,civil,Nacional,NO,NO,Chaco,NO
GPO,SIN_CODIGO,SIN_CODIGO,aeródromo,GENERAL PINEDO,"27°20'38""S  61°16'29""W",-61.27484,-27.34401,91.0,Metros,General Pinedo,2.0,E,PUBLICO,NOCONTROL,RANE,SARR,civil,Nacional,NO,NO,Chaco,NO
GRA,SAWE,RGA,aeródromo,RÍO GRANDE,"53°46'39""S  67°44'58""W",-67.74952,-53.7776,20.0,Metros,Río Grande,9.0,NO,PUBLICO,CONTROL,RASU,SAVF,desconocido,Internacional,SI,SI,Tierra Del Fuego Antártida E Islas Del Atlántico Sur,NO
GRE,SAWR,GGS,aeródromo,GOBERNADOR GREGORES,"48°46'60""S  70° 9'44""W",-70.16222222,-48.78333333,356.0,Metros,Gobernador Gregores,5.0,E,PUBLICO,AERADIO,RASU,SAVF,civil,Nacional,NO,NO,Santa Cruz,NO
GRZ,SIN_CODIGO,SIN_CODIGO,aeródromo,GENERAL RODRIGUEZ,"34°34'58""S  59° 0' 2""W",-59.00055556,-34.58277778,28.0,Metros,General Rodriguez,10.0,SE,PRIVADO,NOCONTROL,RACE,SAEF,ulm,Nacional,NO,NO,Buenos Aires,NO
GSE,SIN_CODIGO,SIN_CODIGO,aeródromo,GUAVIRAVÍ/EA. SANTA ELISA,"29°18'16""S  56°52'52""W",-56.88124,-29.30444,63.0,Metros,Guaviraví,8.7,NO,PRIVADO,NOCONTROL,RANE,SARR,civil,Nacional,NO,NO,Corrientes,NO
GTE,SIN_CODIGO,SIN_CODIGO,aeródromo,GUATRACHE,"37°42'19""S  63°33'25""W",-63.55708,-37.70516,175.0,Metros,Guatrache,3.0,SSO,PUBLICO,NOCONTROL,RACE,SAEF,civil,Nacional,NO,NO,La Pampa,NO
GUA,SAAG,GHU,aeródromo,GUALEGUAYCHÚ,"33° 0'20""S  58°36'46""W",-58.61277778,-33.00555556,23.0,Metros,Gualeguaychú,8.0,O,PUBLICO,CONTROL,RACE,SAEF,civil,Nacional,NO,NO,Entre Ríos,NO
GVA,SIN_CODIGO,SIN_CODIGO,aeródromo,GENERAL ALVEAR/AEROCLUB,"34°58'11""S  67°43'27""W",-67.72416667,-34.96972222,466.0,Metros,General Alvear,4.0,O,PRIVADO,NOCONTROL,RANO,SAMF,civil,Nacional,NO,NO,Mendoza,NO
GVZ,SIN_CODIGO,SIN_CODIGO,aeródromo,GONZALEZ CHAVES,"38° 1'59""S  60° 8' 2""W",-60.13388889,-38.03305556,194.0,Metros,Adolfo Gonzalez Cháves,2.5,O,PUBLICO,NOCONTROL,RACE,SAEF,civil,Nacional,NO,NO,Buenos Aires,NO
GYA,SIN_CODIGO,SIN_CODIGO,aeródromo,GOYA/AEROCLUB,"29°10'11""S  59°14'49""W",-59.24699,-29.16975,38.0,Metros,Goya,1.5,SE,PRIVADO,NOCONTROL,RANE,SARR,civil,Nacional,NO,NO,Corrientes,NO
GYT,SIN_CODIGO,SIN_CODIGO,aeródromo,GOBERNADOR GARMENDIA/AGRO SERVICIO YORIS,"26°34'45""S  64°31'43""W",-64.52869,-26.57916,318.0,Metros,Gobernador Garmendia,3.0,E,PRIVADO,NOCONTROL,RANO,SACF,aeroapp,Nacional,NO,NO,Tucumán,NO
HAB,SIN_CODIGO,SIN_CODIGO,helipuerto,HELIPLATAFORMA AM1,"52°31' 9""S  68°23' 9""W",-68.385833,-52.519167,30.0,Metros,Estrecho de Magallanes,0.0,Lindando,PRIVADO,NOCONTROL,RASU,SAVF,civil,Nacional,NO,NO,Tierra Del Fuego Antártida E Islas Del Atlántico Sur,NO
HAC,SIN_CODIGO,SIN_CODIGO,helipuerto,ALPA CORRAL/JUAN Y LUCI,"32°41'24""S  64°42'60""W",-64.716543,-32.689893,733.0,Metros,Alpa Corral,0.0,SO,PRIVADO,NOCONTROL,RANO,SACF,civil,Nacional,NO,NO,Córdoba,NO
HAD,SIN_CODIGO,SIN_CODIGO,helipuerto,HELIPLATAFORMA AM2,"52°32'56""S  68°18'45""W",-68.3125,-52.548889,44.0,Metros,Estrecho de Magallanes,0.0,Lindando,PRIVADO,NOCONTROL,RASU,SAVF,civil,Nacional,NO,NO,Tierra Del Fuego Antártida E Islas Del Atlántico Sur,NO
HAG,SIN_CODIGO,SIN_CODIGO,helipuerto,LUJAN/SOL DE AGOSTO,"34°31'60""S  58°58'15""W",-58.970859,-34.53325,10.0,Metros,Luján,5.0,E,PRIVADO,NOCONTROL,RACE,SAEF,civil,Nacional,NO,NO,Buenos Aires,NO
HAI,SIN_CODIGO,SIN_CODIGO,helipuerto,VILLA CARLOS PAZ/NORBERTO CORDEIRO,"31°24'51""S  64°29'49""W",-64.497037,-31.41415,621.0,Metros,Margen E Río San Antonio y Río Uruguay,0.0,Lindando,PRIVADO,NOCONTROL,RANO,SACF,civil,Nacional,NO,NO,Córdoba,NO
HAM,SIN_CODIGO,SIN_CODIGO,helipuerto,HELIPLATAFORMA AM3,"52°31'22""S  68°16'51""W",-68.280833,-52.522778,41.0,Metros,Estrecho de Magallanes,0.0,Lindando,PRIVADO,NOCONTROL,RASU,SAVF,civil,Nacional,NO,NO,Tierra Del Fuego Antártida E Islas Del Atlántico Sur,NO
HAS,SIN_CODIGO,SIN_CODIGO,helipuerto,PARANÁ/AMARRAS DEL SOL,"31°42'31""S  60°30' 3""W",-60.50083333,-31.70861111,16.0,Metros,Paraná,4.0,NE,PRIVADO,NOCONTROL,RACE,SAEF,civil,Nacional,NO,NO,Entre Ríos,NO
HAT,SIN_CODIGO,SIN_CODIGO,helipuerto,ALMAFUERTE/TRANSENER S.A.,"32°12'13""S  64°18'53""W",-64.314603,-32.20354,500.0,Metros,Almafuerte,6.3,O,PRIVADO,NOCONTROL,RANO,SACF,civil,Nacional,NO,NO,Córdoba,NO
HAU,SIN_CODIGO,SIN_CODIGO,helipuerto,BUENOS AIRES/AUTÓDROMO CIUDAD DE BS. AS.,"34°41'38""S  58°27'38""W",-58.460425,-34.693918,16.0,Metros,,0.0,Lindando,PRIVADO,NOCONTROL,RACE,SAEF,civil,Nacional,NO,NO,Ciudad Autónoma De Buenos Aires,NO
HBA,SIN_CODIGO,SIN_CODIGO,helipuerto,SAN CARLOS DE BARILOCHE/ARELAUQUEN,"41° 9'40""S  71°21'56""W",-71.36568,-41.161161,945.0,Metros,San Carlos de Bariloche,8.0,SO,PRIVADO,NOCONTROL,RACE,SAEF,civil,Nacional,NO,NO,Río Negro,NO
HBC,SIN_CODIGO,SIN_CODIGO,helipuerto,BUENOS AIRES/B. CHURRUCA,"34°38'27""S  58°24'34""W",-58.409441,-34.64073,6.0,Metros,Ciudad de Buenos Aires,0.0,O,PUBLICO,NOCONTROL,RACE,SAEF,civil,Nacional,NO,NO,Ciudad Autónoma De Buenos Aires,NO
HBI,SIN_CODIGO,SIN_CODIGO,helipuerto,CÓRDOBA/HELIPUERTO CENTRO CÍVICO BICENTENARIO,"31°25'13""S  64°10'24""W",-64.173382,-31.420398,392.0,Metros,Aeropuerto,12.0,SSE,PRIVADO,NOCONTROL,RANO,SACF,civil,Nacional,NO,NO,Córdoba,NO
HBM,SIN_CODIGO,SIN_CODIGO,helipuerto,BUENOS AIRES/MADERO,"34°37'18""S  58°20'42""W",-58.344913,-34.621535,5.0,Metros,Ciudad de Buenos Aires,0.0,SE,PRIVADO,NOCONTROL,RACE,SAEF,civil,Nacional,NO,NO,Ciudad Autónoma De Buenos Aires,NO
HBO,SIN_CODIGO,SIN_CODIGO,helipuerto,EL BRACHO/TRANSENER S.A.,"26°59'37""S  65° 9'49""W",-65.163478,-26.993528,378.0,Metros,El Bracho,0.0,Lindando,PRIVADO,NOCONTROL,RANO,SACF,civil,Nacional,NO,NO,Tucumán,NO
HBP,SIN_CODIGO,SIN_CODIGO,helipuerto,BAHÍA BLANCA/PBB POLISUR S.A.,"38°46'24""S  62°17'38""W",-62.293984,-38.77345,5.0,Metros,Bahía Blanca,6.5,SSO,PRIVADO,NOCONTROL,RACE,SAEF,civil,Nacional,NO,NO,Buenos Aires,NO
HBR,SIN_CODIGO,SIN_CODIGO,helipuerto,CÓRDOBA/BERRINI,"31°26'23""S  64°20'37""W",-64.34373,-31.439765,552.0,Metros,Córdoba,14.0,SO,PRIVADO,NOCONTROL,RANO,SACF,civil,Nacional,NO,NO,Córdoba,NO
HBT,SIN_CODIGO,SIN_CODIGO,helipuerto,LA PLATA,"34°54' 2""S  57°55'46""W",-57.92948611,-34.90044444,6.0,Metros,La Plata,3.0,NE,PRIVADO,NOCONTROL,RACE,SAEF,civil,Nacional,NO,NO,Buenos Aires,NO
HCA,SIN_CODIGO,SIN_CODIGO,helipuerto,COSTA AZUL/LA CALDERA,"36°40' 1""S  56°40'43""W",-56.678721,-36.666985,10.0,Metros,"Duhau, Av. Belgrano y Av. Costanera",0.0,Lindando,PRIVADO,NOCONTROL,RACE,SAEF,civil,Nacional,NO,NO,Buenos Aires,NO
HCC,SIN_CODIGO,SIN_CODIGO,helipuerto,CHOEL  CHOEL/TRANSENER S.A.,"39°33'60""S  65°41'20""W",-65.68877,-39.566662,130.0,Metros,Lamarque,16.0,S,PRIVADO,NOCONTROL,RACE,SAEF,civil,Nacional,NO,NO,Río Negro,NO
HCD,SIN_CODIGO,SIN_CODIGO,helipuerto,SAN MARTÍN DE LOS ANDES/EA. LA CANDELARIA,"40° 2'39""S  71°21'60""W",-71.366646,-40.044053,914.0,Metros,San Martín de los Andes,13.0,N,PRIVADO,NOCONTROL,RACE,SAEF,civil,Nacional,NO,NO,Neuquén,NO
HCE,SIN_CODIGO,SIN_CODIGO,helipuerto,HELIPLATAFORMA/RÍO CULLEN-HIDRACENTRO TOTAL AUSTRAL,"52°50'11""S  68°10'44""W",-68.178889,-52.836389,39.0,Metros,,0.0,Lindando,PRIVADO,NOCONTROL,RASU,SAVF,civil,Nacional,NO,NO,Tierra Del Fuego Antártida E Islas Del Atlántico Sur,NO
HCG,SIN_CODIGO,SIN_CODIGO,helipuerto,EZEIZA/TRANSENER S.A.,"34°54'44""S  58°43'11""W",-58.719844,-34.912354,20.0,Metros,Cañuelas,15.0,N,PRIVADO,NOCONTROL,RACE,SAEF,civil,Nacional,NO,NO,Buenos Aires,NO
HCI,SIN_CODIGO,SIN_CODIGO,helipuerto,BELÉN DE ESCOBAR/CABAÑA SAN ISIDRO LABRADOR I,"34°22'43""S  58°47'19""W",-58.78852,-34.378674,12.0,Metros,Belén de Escobar,3.0,SSE,PRIVADO,NOCONTROL,RACE,SAEF,civil,Nacional,NO,NO,Buenos Aires,NO
HCL,SIN_CODIGO,SIN_CODIGO,helipuerto,CATAN LIL/EA. SANTA ISABEL,"39°53' 5""S  70°30'50""W",-70.513907,-39.884782,950.0,Metros,Departamento de Collón Curá,0.0,Lindando,PRIVADO,NOCONTROL,RACE,SAEF,civil,Nacional,NO,NO,Neuquén,NO
HCN,SIN_CODIGO,SIN_CODIGO,helipuerto,EMBALSE/CENTRAL NUCLEAR,"32°13'46""S  64°26'24""W",-64.439904,-32.229454,530.0,Metros,Embalse,0.0,SE,PRIVADO,NOCONTROL,RANO,SACF,civil,Nacional,NO,NO,Córdoba,NO
HCO,SIN_CODIGO,SIN_CODIGO,helipuerto,CHENAUT/EL CAPRICHO,"34°13'58""S  59°18'57""W",-59.315902,-34.232743,30.0,Metros,Estación Chenaut,6.0,O,PRIVADO,NOCONTROL,RACE,SAEF,civil,Nacional,NO,NO,Buenos Aires,NO
HCP,SIN_CODIGO,SIN_CODIGO,helipuerto,YACIMIENTO CAÑADON ALFA/TOTAL AUSTRAL S.A.,"52°44'19""S  68°34'21""W",-68.572493,-52.738661,87.0,Metros,,0.0,Lindando,PRIVADO,NOCONTROL,RASU,SAVF,civil,Nacional,NO,NO,Tierra Del Fuego Antártida E Islas Del Atlántico Sur,NO
HCR,SIN_CODIGO,SIN_CODIGO,helipuerto,BARREALES - GRAN MENDOZA/TRANSENER S.A.,"33° 5'57""S  68°34'46""W",-68.579397,-33.099208,674.0,Metros,Barreales,0.0,O,PRIVADO,NOCONTROL,RANO,SAMF,civil,Nacional,NO,NO,Mendoza,NO
HCS,SIN_CODIGO,SIN_CODIGO,helipuerto,CAPILLA DEL SEÑOR/LAS ARAUCARIAS,"34°18'25""S  59°10'13""W",-59.170276,-34.307048,25.0,Metros,Capilla del Señor,6.5,O,PRIVADO,NOCONTROL,RACE,SAEF,civil,Nacional,NO,NO,Buenos Aires,NO
HCT,SIN_CODIGO,SIN_CODIGO,helipuerto,CAMPANA/TRANSENER S.A.,"34°10'28""S  58°59'58""W",-58.999307,-34.174379,10.0,Metros,Campana,3.0,O,PRIVADO,NOCONTROL,RACE,SAEF,civil,Nacional,NO,NO,Buenos Aires,NO
HCU,SIN_CODIGO,SIN_CODIGO,helipuerto,CÓRDOBA/CIUDAD UNIVERSITARIA,"31°26'27""S  64°11'25""W",-64.190266,-31.440805,440.0,Metros,"Medina Allende, Av. Ciudad de Valparaiso y vías FCGBM",0.0,Lindando,PRIVADO,NOCONTROL,RANO,SACF,civil,Nacional,NO,NO,Córdoba,NO
HCV,SIN_CODIGO,SIN_CODIGO,helipuerto,CABO VÍRGENES/BRM CABO VÍRGENES,"52°19'49""S  68°24'30""W",-68.408453,-52.330311,55.0,Metros,Río Gallegos,120.0,SE,PRIVADO,NOCONTROL,RASU,SAVF,civil,Nacional,NO,NO,Santa Cruz,NO
HDA,SIN_CODIGO,SIN_CODIGO,helipuerto,BUENOS AIRES/DARSENA SUR,"34°37'40""S  58°21' 6""W",-58.351532,-34.627862,5.0,Metros,Isla Demarchi,0.0,O,PUBLICO,NOCONTROL,RACE,SAEF,mil,Nacional,NO,NO,Ciudad Autónoma De Buenos Aires,NO
HDI,SIN_CODIGO,SIN_CODIGO,helipuerto,BUENOS AIRES/DINES DR. E. ESCUDERO,"34°34'21""S  58°24' 2""W",-58.400458,-34.572579,6.0,Metros,Salguero y Costanera,0.0,Lindando,PRIVADO,NOCONTROL,RACE,SAEF,civil,Nacional,NO,NO,Ciudad Autónoma De Buenos Aires,NO
HDL,SIN_CODIGO,SIN_CODIGO,helipuerto,JUNÍN DE LOS ANDES/CASA DE LATA,"39°48'56""S  71°10'12""W",-71.16995,-39.815579,982.0,Metros,Junín de los Andes,12.0,N,PRIVADO,NOCONTROL,RACE,SAEF,civil,Nacional,NO,NO,Neuquén,NO
HDR,SIN_CODIGO,SIN_CODIGO,helipuerto,GRANADERO BAIGORRIA/HOSPITAL R. CARRILLO,"32°51' 7""S  60°42'33""W",-60.709211,-32.851806,37.0,Metros,Granadero Baigorria,1.0,SE,PUBLICO,NOCONTROL,RACE,SAEF,desconocido,Nacional,NO,NO,Santa Fé,NO
HDS,SIN_CODIGO,SIN_CODIGO,aeródromo,HENDERSON,"36°18'55""S  61°44'52""W",-61.74777778,-36.31527778,150.0,Metros,Henderson,2.5,OSO,PUBLICO,NOCONTROL,RACE,SAEF,civil,Nacional,NO,NO,Buenos Aires,NO
HDT,SIN_CODIGO,SIN_CODIGO,helipuerto,DON TORCUATO/TIMEN S.A.,"34°29'46""S  58°36'29""W",-58.608031,-34.496085,6.0,Metros,Ex Aeródromo Don Torcuato,0.0,Lindando,PUBLICO,NOCONTROL,RACE,SAEF,civil,Nacional,NO,NO,Buenos Aires,NO
HEA,SIN_CODIGO,SIN_CODIGO,helipuerto,HELIPLATAFORMA AM6,"52°36'30""S  68° 7'40""W",-68.127778,-52.608333,32.0,Metros,Cabo Vírgenes,34.0,SE,PRIVADO,NOCONTROL,RASU,SAVF,civil,Nacional,NO,NO,Tierra Del Fuego Antártida E Islas Del Atlántico Sur,NO
HEC,SIN_CODIGO,SIN_CODIGO,helipuerto,LA PLATA/ECODYMA S.C.A.,"34°56'27""S  57°59'31""W",-57.991881,-34.940786,14.0,Metros,Estación La Plata,5.5,SO,PRIVADO,NOCONTROL,RACE,SAEF,civil,Nacional,NO,NO,Buenos Aires,NO
HEN,SIN_CODIGO,SIN_CODIGO,helipuerto,BAHÍA SAN SEBASTIÁN/PLANTA CRUZ DEL SUR,"53°19'23""S  68°15'58""W",-68.266107,-53.32299,53.0,Metros,Río Grande,64.0,NO,PRIVADO,NOCONTROL,RASU,SAVF,civil,Nacional,NO,NO,Tierra Del Fuego Antártida E Islas Del Atlántico Sur,NO
HES,SIN_CODIGO,SIN_CODIGO,helipuerto,ARIES/TOTAL FINA,"52°40'59""S  68° 2'31""W",-68.041944,-52.683056,0.0,Pies,,0.0,,PRIVADO,NOCONTROL,RASU,SAVF,civil,Nacional,NO,NO,Tierra Del Fuego Antártida E Islas Del Atlántico Sur,NO
HET,SIN_CODIGO,SIN_CODIGO,helipuerto,SANTIAGO DEL ESTERO/HELIPUERTO EDIFICIO TRIBUNALES,"27°46'53""S  64°15'54""W",-64.265127,-27.781396,195.0,Metros,Av. H. Yrigoyen entre Av. Alvear y Chacabuco,,,PRIVADO,NOCONTROL,RANO,SACF,desconocido,Nacional,NO,NO,Santiago Del Estero,NO
HEV,SIN_CODIGO,SIN_CODIGO,helipuerto,ALMIRANTE BROWN/DESTACAMENTO POLICIAL EL VAPOR,"34°50' 5""S  58°23' 6""W",-58.384984,-34.834672,28.0,Metros,Destacamento Policial El Vapor,0.0,Lindando,PUBLICO,NOCONTROL,RACE,SAEF,civil,Nacional,NO,NO,Buenos Aires,NO
HFA,SIN_CODIGO,SIN_CODIGO,helipuerto,BUENOS AIRES/FUERZA AÉREA,"34°35'10""S  58°22' 5""W",-58.368051,-34.58598,6.0,Metros,Estación Retiro,0.5,NE,PRIVADO,NOCONTROL,RACE,SAEF,mil,Nacional,NO,NO,Ciudad Autónoma De Buenos Aires,NO
HFC,SIN_CODIGO,SIN_CODIGO,helipuerto,SALTA/FINCA LAS COSTAS,"24°46'13""S  65°29'44""W",-65.495501,-24.770405,1311.0,Metros,Salta,8.5,ONO,PRIVADO,NOCONTROL,RANO,SACF,civil,Nacional,NO,NO,Salta,NO
HFV,SIN_CODIGO,SIN_CODIGO,helipuerto,FLORENCIO VARELA/COLONIA LA CAPILLA,"34°55' 1""S  58°15' 1""W",-58.250221,-34.916875,25.0,Metros,Florencio Varela,9.0,OSO,PUBLICO,NOCONTROL,RACE,SAEF,civil,Nacional,NO,NO,Buenos Aires,NO
HGA,SIN_CODIGO,SIN_CODIGO,helipuerto,CAÑUELAS/CAÑUELAS GAS S.A.,"35° 3'30""S  58°47'17""W",-58.788161,-35.058342,30.0,Metros,Cañuelas,9.0,OSO,PRIVADO,NOCONTROL,RACE,SAEF,civil,Nacional,NO,NO,Buenos Aires,NO
HGB,SIN_CODIGO,SIN_CODIGO,helipuerto,SALTA/CENTRO CÍVICO GRAND BOURG,"24°46'51""S  65°27' 4""W",-65.451084,-24.780762,1260.0,Metros,Salta,4.0,NE,PRIVADO,NOCONTROL,RANO,SACF,civil,Nacional,NO,NO,Salta,NO
HGM,SIN_CODIGO,SIN_CODIGO,helipuerto,GONZALEZ CATÁN/LAR DE PAZ S.A.,"34°46'35""S  58°39'30""W",-58.658271,-34.776299,15.0,Metros,Estación FFCC Gonzalez Catán,1.3,SO,PRIVADO,NOCONTROL,RACE,SAEF,civil,Nacional,NO,NO,Buenos Aires,NO
HGN,SIN_CODIGO,SIN_CODIGO,helipuerto,BUENOS AIRES/CENTINELA,"34°34'57""S  58°22'28""W",-58.374528,-34.582445,13.0,Metros,Ciudad de Buenos Aires,0.0,SE,PRIVADO,NOCONTROL,RACE,SAEF,joint,Nacional,NO,NO,Ciudad Autónoma De Buenos Aires,NO
HGS,SIN_CODIGO,SIN_CODIGO,aeródromo,HUGHES/PLUS AGROSERVICIOS AÉREOS,"33°48'40""S  61°20'15""W",-61.3375,-33.81111111,97.0,Metros,Hughes,1.0,S,PRIVADO,NOCONTROL,RACE,SAEF,aeroapp,Nacional,NO,NO,Santa Fé,NO
HHL,SIN_CODIGO,SIN_CODIGO,helipuerto,LAS LAJAS/EA. HAYCHOL,"38°32'53""S  70°40'39""W",-70.677494,-38.548178,1051.0,Metros,Las Lajas,35.0,O,PRIVADO,NOCONTROL,RACE,SAEF,civil,Nacional,NO,NO,Neuquén,NO
HHM,SIN_CODIGO,SIN_CODIGO,helipuerto,SALTA/HOSPITAL DE MILAGRO,"24°46'23""S  65°24'56""W",-65.415621,-24.772921,1240.0,Metros,Salta,3.0,N,PRIVADO,NOCONTROL,RANO,SACF,civil,Nacional,NO,NO,Salta,NO
HHT,SIN_CODIGO,SIN_CODIGO,helipuerto,DON TORCUATO/TECNOCOPTER S.A.,"34°29'34""S  58°36'25""W",-58.606915,-34.492668,20.0,Metros,Ex Aeródromo Don Torcuato,0.0,Lindando,PUBLICO,NOCONTROL,RACE,SAEF,civil,Nacional,NO,NO,Buenos Aires,NO
HHW,SIN_CODIGO,SIN_CODIGO,helipuerto,MORENO/HELIWEST,"34°38' 3""S  58°45' 6""W",-58.751782,-34.634199,21.5,Metros,Moreno,3.9,ENE,PRIVADO,NOCONTROL,RACE,SAEF,civil,Nacional,NO,NO,Buenos Aires,NO
HIL,SIN_CODIGO,SIN_CODIGO,helipuerto,GRAL. VILLEGAS/SAN ISIDRO LABRADOR II,"35° 4'54""S  63° 4'48""W",-63.079953,-35.081749,115.0,Metros,General Villegas,8.0,SE,PRIVADO,NOCONTROL,RACE,SAEF,civil,Nacional,NO,NO,Buenos Aires,NO
HIS,SIN_CODIGO,SIN_CODIGO,helipuerto,LA MATANZA/CAMPANÓPOLIS,"34°47'30""S  58°36' 7""W",-58.601878,-34.791733,6.0,Metros,Aeropuerto Ezeiza / Ministro Pistarini,7.0,ONO,PRIVADO,NOCONTROL,RACE,SAEF,civil,Nacional,NO,NO,Buenos Aires,NO
HIT,SIN_CODIGO,SIN_CODIGO,helipuerto,ITUZAINGÓ/TRANSENER,"27°33'31""S  56°39'30""W",-56.658294,-27.558575,71.0,Metros,Ituzaingó,4.0,NNE,PRIVADO,NOCONTROL,RANE,SARR,civil,Nacional,NO,NO,Corrientes,NO
HJN,SIN_CODIGO,SIN_CODIGO,helipuerto,JUNÍN DE LOS ANDES/EA. PALITUE,"39°51'10""S  71° 2'47""W",-71.046426,-39.852774,859.0,Metros,Junín de los Andes,10.0,N,PRIVADO,NOCONTROL,RACE,SAEF,civil,Nacional,NO,NO,Neuquén,NO
HLE,SIN_CODIGO,SIN_CODIGO,helipuerto,LAGO ESCONDIDO/HIDDEN LAKE S.A.,"41°42'12""S  71°36'28""W",-71.607697,-41.70337,830.0,Metros,El Bolsón,31.0,NNO,PRIVADO,NOCONTROL,RASU,SAVF,civil,Nacional,NO,NO,Río Negro,NO
HLF,SIN_CODIGO,SIN_CODIGO,helipuerto,CAPILLA DEL SEÑOR/LOS FRESNOS,"34°16'54""S  59° 7' 7""W",-59.118616,-34.2816,34.0,Metros,Capilla del Señor,2.2,NO,PRIVADO,NOCONTROL,RACE,SAEF,civil,Nacional,NO,NO,Buenos Aires,NO
HLH,SIN_CODIGO,SIN_CODIGO,helipuerto,LUJÁN/HOMAQ,"34°33'26""S  59° 2'45""W",-59.045919,-34.557353,24.0,Metros,Luján,6.0,N,PRIVADO,NOCONTROL,RACE,SAEF,civil,Nacional,NO,NO,Buenos Aires,NO
HLI,SIN_CODIGO,SIN_CODIGO,helipuerto,DON TORCUATO/HELICENTER,"34°29'51""S  58°36'25""W",-58.606884,-34.497531,3.87,Metros,Ex Aeródromo Don Torcuato,0.0,Lindando,PRIVADO,NOCONTROL,RACE,SAEF,civil,Nacional,NO,NO,Buenos Aires,NO
HLL,SIN_CODIGO,SIN_CODIGO,helipuerto,SAN CARLOS DE BARILOCHE/COMPLEJO LLAO LLAO,"41° 3'17""S  71°32' 2""W",-71.533825,-41.054659,775.0,Metros,San Carlos de Bariloche,20.0,O,PRIVADO,NOCONTROL,RACE,SAEF,civil,Nacional,NO,NO,Río Negro,NO
HLP,SIN_CODIGO,SIN_CODIGO,helipuerto,LA PLATA/HELIPUERTO D.P.A.O.,"34°57'35""S  57°53'35""W",-57.893075,-34.959802,19.0,Metros,Extremo W del aeródromo,0.0,Lindando,PUBLICO,NOCONTROL,RACE,SAEF,civil,Nacional,NO,NO,Buenos Aires,NO
HLR,SIN_CODIGO,SIN_CODIGO,helipuerto,LOS CARDALES/LA RESERVA,"34°16'14""S  58°54' 2""W",-58.900427,-34.270449,6.0,Metros,Los Cardales,10.0,NE,PRIVADO,NOCONTROL,RACE,SAEF,civil,Nacional,NO,NO,Buenos Aires,NO
HLS,SIN_CODIGO,SIN_CODIGO,helipuerto,OPEN DOOR/LA SUPERBA,"34°30' 3""S  59° 0'55""W",-59.015184,-34.500721,0.0,Metros,,0.0,Lindando,PRIVADO,NOCONTROL,RACE,SAEF,desconocido,Nacional,NO,NO,Buenos Aires,NO
HLT,SIN_CODIGO,SIN_CODIGO,helipuerto,VILLA ROSA/LAS CHACRITAS,"34°24'17""S  58°51'49""W",-58.863589,-34.404632,19.66,Metros,Villa Rosa,1.5,NNE,PRIVADO,NOCONTROL,RACE,SAEF,civil,Nacional,NO,NO,Buenos Aires,NO
HLU,SIN_CODIGO,SIN_CODIGO,helipuerto,LUJÁN/TRANSENER S.A.,"32°22' 0""S  66° 3'59""W",-66.066423,-32.366669,600.0,Metros,Luján,9.0,O,PRIVADO,NOCONTROL,RANO,SACF,civil,Nacional,NO,NO,San Luis,NO
HMA,SIN_CODIGO,SIN_CODIGO,helipuerto,HUDSON/MANUEL AFONSO,"34°48'56""S  58°11'43""W",-58.195412,-34.815509,11.0,Metros,,0.0,,PUBLICO,NOCONTROL,RACE,SAEF,civil,Nacional,NO,NO,Buenos Aires,NO
HMC,SIN_CODIGO,SIN_CODIGO,helipuerto,GARÍN/MIRAFLORES COUNTRY CLUB,"34°26'45""S  58°44' 3""W",-58.734061,-34.445915,21.0,Metros,Garin,2.6,S,PRIVADO,NOCONTROL,RACE,SAEF,civil,Nacional,NO,NO,Buenos Aires,NO
HMD,SIN_CODIGO,SIN_CODIGO,helipuerto,BUENOS AIRES/HELIPUERTO SWISS MEDICAL,"34°34'52""S  58°25'46""W",-58.429528,-34.581053,59.0,Metros,Juan B. Justo 909,0.0,Lindando,PRIVADO,NOCONTROL,RACE,SAEF,civil,Nacional,NO,NO,Ciudad Autónoma De Buenos Aires,NO
HME,SIN_CODIGO,SIN_CODIGO,helipuerto,PILAR/MEMORIAL,"34°26'40""S  58°50'12""W",-58.836706,-34.444449,19.0,Metros,Ruta Panamericana Km. 46,0.0,,PRIVADO,NOCONTROL,RACE,SAEF,civil,Nacional,NO,NO,Buenos Aires,NO
HMF,SIN_CODIGO,SIN_CODIGO,helipuerto,LA MATANZA/OFICIAL SUBINSPECTOR GUSTAVO SOAREZ DE SOUZA,"34°43'25""S  58°30'54""W",-58.514923,-34.723585,43.0,Metros,Ruta 4 y Autopista Richieri,0.0,O,PRIVADO,NOCONTROL,RACE,SAEF,civil,Nacional,NO,NO,Buenos Aires,NO
HMG,SIN_CODIGO,SIN_CODIGO,helipuerto,BUENOS AIRES / MADERO HARBOUR,"34°37'16""S  58°21'39""W",-58.36092778,-34.62097778,78.8,Metros,Edificio T5 - Complejo Madero Harbour,,,PRIVADO,NOCONTROL,RACE,SAEF,civil,Nacional,NO,NO,Ciudad Autónoma De Buenos Aires,NO
HMH,SIN_CODIGO,SIN_CODIGO,helipuerto,SAN FERNANDO/PARANÁ MINÍ,"34°10'16""S  58°30'39""W",-58.510795,-34.171041,5.0,Metros,Río Paraná Miní,0.0,E,PRIVADO,NOCONTROL,RACE,SAEF,civil,Nacional,NO,NO,Buenos Aires,NO
HMM,SIN_CODIGO,SIN_CODIGO,helipuerto,DR. MARIANO MORENO,"34°33'46""S  58°47'26""W",-58.790569,-34.562908,32.0,Metros,José C. Paz,7.0,S,PRIVADO,NOCONTROL,RACE,SAEF,mil,Nacional,NO,NO,Buenos Aires,NO
HMQ,SIN_CODIGO,SIN_CODIGO,helipuerto,HELIPLATAFORMA AM5,"52°34'14""S  68°15'12""W",-68.253333,-52.570556,30.0,Metros,Estrecho de Magallanes,0.0,Lindando,PRIVADO,NOCONTROL,RASU,SAVF,civil,Nacional,NO,NO,Tierra Del Fuego Antártida E Islas Del Atlántico Sur,NO
HMT,SIN_CODIGO,SIN_CODIGO,helipuerto,MONTE CRISTO/TRANSENER S.A.,"31°20'21""S  63°54'50""W",-63.913851,-31.3392,330.0,Metros,Monte Cristo,3.0,E,PRIVADO,NOCONTROL,RANO,SACF,civil,Nacional,NO,NO,Córdoba,NO
HMY,SIN_CODIGO,SIN_CODIGO,helipuerto,LA MATANZA/TERMINAL Y.P.F.,"34°43'55""S  58°33'28""W",-58.557711,-34.731886,10.0,Metros,Ruta Prov. 21 y Av. Cristianía,0.0,Lindando,PRIVADO,NOCONTROL,RACE,SAEF,civil,Nacional,NO,NO,Buenos Aires,NO
HNB,SIN_CODIGO,SIN_CODIGO,helipuerto,TIGRE/NORDELTA,"34°26'23""S  58°38'32""W",-58.642147,-34.439639,5.0,Metros,Tigre,2.0,NNO,PRIVADO,NOCONTROL,RACE,SAEF,civil,Nacional,NO,NO,Buenos Aires,NO
HNE,SIN_CODIGO,SIN_CODIGO,helipuerto,VILLA NUEVA/DAYRY PARTNERS AMERICAS MANUFACTURING ARGENTINA S.A,"32°26'16""S  63°13'27""W",-63.22409,-32.437713,195.0,Metros,Villa Nueva,0.0,Lindando,PRIVADO,NOCONTROL,RANO,SACF,civil,Nacional,NO,NO,Córdoba,NO
HNH,SIN_CODIGO,SIN_CODIGO,helipuerto,HELIPLATAFORMA NOBLE HOUSTON COLBERT,"53° 5'54""S  67°13'13""W",-67.220278,-53.098333,63.5,Metros,Cuenca Marina Austral I Aguas Juridiccionales Argentinas,,,PRIVADO,NOCONTROL,RASU,SAVF,desconocido,Nacional,NO,NO,Tierra Del Fuego Antártida E Islas Del Atlántico Sur,NO
HNO,SIN_CODIGO,SIN_CODIGO,helipuerto,HELIPLATAFORMA/RÍO CULLEN-HIDRANORT,"52°49'14""S  68°13' 9""W",-68.219167,-52.820556,20.0,Metros,,0.0,Lindando,PRIVADO,NOCONTROL,RASU,SAVF,civil,Nacional,NO,NO,Tierra Del Fuego Antártida E Islas Del Atlántico Sur,NO
HNP,SIN_CODIGO,SIN_CODIGO,helipuerto,BUENOS AIRES/HOSPITAL NACIONAL DE PEDIATRÍA PROF. JUAN GARRAHAM,"34°37'52""S  58°23'38""W",-58.393835,-34.63098,39.0,Metros,Av. Juan de Garay y Pichincha,0.0,Lindando,PUBLICO,NOCONTROL,RACE,SAEF,civil,Nacional,NO,NO,Ciudad Autónoma De Buenos Aires,NO
HOB,SIN_CODIGO,SIN_CODIGO,helipuerto,ALTA GRACIA/ORESTE BERTA,"31°37'59""S  64°23'52""W",-64.397768,-31.633061,570.0,Metros,Alta Gracia,3.5,NE,PRIVADO,NOCONTROL,RANO,SACF,civil,Nacional,NO,NO,Córdoba,NO
HOC,SIN_CODIGO,SIN_CODIGO,helipuerto,HELIPLATAFORMA OCEANIC CHAMPION,"52°50' 0""S  66°25' 0""W",-66.41666667,-52.83333333,20.0,Metros,Río Grande,138.9,,PRIVADO,NOCONTROL,RASU,SAVF,desconocido,Nacional,NO,NO,Tierra Del Fuego Antártida E Islas Del Atlántico Sur,NO
HOS,SIN_CODIGO,SIN_CODIGO,helipuerto,HELIPLATAFORMA MÓVIL OCEAN SCEPTER,"46°28' 0""S  67°25'60""W",-67.433333,-46.466667,154.0,Metros,Golfo San Jorge,0.0,Lindando,PRIVADO,NOCONTROL,RASU,SAVF,civil,Nacional,NO,NO,Santa Cruz,NO
HPA,SIN_CODIGO,SIN_CODIGO,helipuerto,BUENOS AIRES/PRESIDENCIA DE LA NACIÓN,"34°36'23""S  58°22' 6""W",-58.368322,-34.606433,8.0,Metros,"Av Madero,Tte. Gral. Perón y Av. La Rábida",0.0,Lindando,PRIVADO,NOCONTROL,RACE,SAEF,civil,Nacional,NO,NO,Ciudad Autónoma De Buenos Aires,NO
HPC,SIN_CODIGO,SIN_CODIGO,helipuerto,CÓRDOBA/POLICIA PROVINCIA DE CÓRDOBA,"31°24'30""S  64°11'58""W",-64.199434,-31.40821,393.0,Metros,Córdoba,0.0,O,PUBLICO,NOCONTROL,RANO,SACF,civil,Nacional,NO,NO,Córdoba,NO
HPD,SIN_CODIGO,SIN_CODIGO,helipuerto,MENDOZA/POLICIA DE LA PROVINCIA DE MENDOZA,"32°52'42""S  68°52' 4""W",-68.867744,-32.878387,807.0,Metros,Aeropuerto de Mendoza,8.0,OSO,PRIVADO,NOCONTROL,RANO,SAMF,civil,Nacional,NO,NO,Mendoza,NO
HPE,SIN_CODIGO,SIN_CODIGO,helipuerto,PARANÁ/HOSPITAL MATERNO INFANTIL SAN ROQUE,"31°43'48""S  60°31'17""W",-60.521265,-31.730027,81.0,Metros,Paraná,0.0,,PUBLICO,NOCONTROL,RACE,SAEF,civil,Nacional,NO,NO,Entre Ríos,NO
HPG,SIN_CODIGO,SIN_CODIGO,helipuerto,PIEDRA DEL ÁGUILA/TRANSENER S.A.,"40° 9'41""S  70° 2'33""W",-70.042408,-40.161297,702.0,Metros,Piedra del Águila,13.5,S,PRIVADO,NOCONTROL,RACE,SAEF,civil,Nacional,NO,NO,Neuquén,NO
HPI,SIN_CODIGO,SIN_CODIGO,helipuerto,PILAR GOLF/PIERO VARA,"34°25'59""S  58°58'21""W",-58.972486,-34.433128,12.0,Metros,Pilar,6.0,ONO,PRIVADO,NOCONTROL,RACE,SAEF,desconocido,Nacional,NO,NO,Buenos Aires,NO
HPL,SIN_CODIGO,SIN_CODIGO,helipuerto,LA RIOJA/HELIPUERTO POLICIA PROVINCIAL C.A.P.E.,"29°26' 8""S  66°51'48""W",-66.863203,-29.435592,520.0,Metros,La Rioja,2.6,SSO,PRIVADO,NOCONTROL,RANO,SACF,civil,Nacional,NO,NO,La Rioja,NO
HPM,SIN_CODIGO,SIN_CODIGO,helipuerto,LA PLATA/POLICLÍNICO SAN MARTÍN,"34°55'29""S  57°55'19""W",-57.921928,-34.924584,21.0,Metros,Av. 1 y Calle 71,0.0,Lindando,PUBLICO,NOCONTROL,RACE,SAEF,civil,Nacional,NO,NO,Buenos Aires,NO
HPN,SIN_CODIGO,SIN_CODIGO,helipuerto,BUENOS AIRES/P.N.A. OF. PPAL. BALLESTRA,"34°34'38""S  58°23' 2""W",-58.383829,-34.577207,6.0,Metros,Junín y Rafael Obligado (Dársena F),0.0,Lindando,PRIVADO,NOCONTROL,RACE,SAEF,mil,Nacional,NO,NO,Ciudad Autónoma De Buenos Aires,NO
HPO,SIN_CODIGO,SIN_CODIGO,helipuerto,PUERTO ESPERANZA,"25°59'25""S  54°38'18""W",-54.638298,-25.99034,155.0,Metros,Esperanza,4.7,NO,PRIVADO,NOCONTROL,RANE,SARR,civil,Nacional,NO,NO,Misiones,NO
HPS,SIN_CODIGO,SIN_CODIGO,helipuerto,PACHÓN/HELIPUERTO PACHÓN MINERA S.A.,"31°45'36""S  70°24'44""W",-70.41209,-31.760056,3600.0,Metros,Pachón,0.0,Lindando,PRIVADO,NOCONTROL,RANO,SAMF,desconocido,Nacional,NO,NO,San Juan,NO
HPT,SIN_CODIGO,SIN_CODIGO,helipuerto,SAN MARTÍN/COOPERATIVA DE TRABAJOS PORTUARIOS LIMITADA,"32°43' 9""S  60°43'35""W",-60.72647778,-32.71917778,9.0,Metros,Puerto General San Martín,0.5,SE,PRIVADO,NOCONTROL,RACE,SAEF,civil,Nacional,NO,NO,Santa Fé,NO
HPU,SIN_CODIGO,SIN_CODIGO,helipuerto,PUELCHES/TRANSENER S.A.,"38° 8'52""S  65°49'30""W",-65.824946,-38.147703,229.0,Metros,Puelches,8.0,E,PRIVADO,NOCONTROL,RACE,SAEF,civil,Nacional,NO,NO,La Pampa,NO
HRC,SIN_CODIGO,SIN_CODIGO,helipuerto,CARMEN DE ARECO/SAN JOAQUÍN,"34°20'19""S  59°43'17""W",-59.721463,-34.338474,42.0,Metros,Carmen de Areco,16.0,NE,PRIVADO,NOCONTROL,RACE,SAEF,civil,Nacional,NO,NO,Buenos Aires,NO
HRE,SIN_CODIGO,SIN_CODIGO,helipuerto,RECREO/TRANSENER S.A.,"29°15'46""S  65° 3'30""W",-65.058247,-29.262769,247.0,Metros,Recreo,0.0,,PRIVADO,NOCONTROL,RANO,SACF,civil,Nacional,NO,NO,Catamarca,NO
HRI,SIN_CODIGO,SIN_CODIGO,helipuerto,HELIPLATAFORMA CARINA/TOTAL FINA ELF,"52°45'26""S  67°13'10""W",-67.219444,-52.757222,0.0,Pies,,0.0,,PRIVADO,NOCONTROL,RASU,SAVF,civil,Nacional,NO,NO,Tierra Del Fuego Antártida E Islas Del Atlántico Sur,NO
HRM,SIN_CODIGO,SIN_CODIGO,helipuerto,SAN MARTÍN DE LOS ANDES/RANCHO DE MONTAÑA,"40° 9' 8""S  71°17' 7""W",-71.285379,-40.152264,1005.0,Metros,San Martín de los Andes,5.0,E,PRIVADO,NOCONTROL,RACE,SAEF,civil,Nacional,NO,NO,Neuquén,NO
HRR,SIN_CODIGO,SIN_CODIGO,helipuerto,MORRISON,"32°35'10""S  62°50' 6""W",-62.83505,-32.586092,142.0,Metros,Morrison,3.5,NO,PRIVADO,NOCONTROL,RANO,SACF,civil,Nacional,NO,NO,Córdoba,NO
HRT,SIN_CODIGO,SIN_CODIGO,helipuerto,ROMANG/TRANSENER S.A.,"29°27'41""S  59°45'53""W",-59.764765,-29.461483,58.0,Metros,Romang,3.5,E,PRIVADO,NOCONTROL,RANE,SARR,civil,Nacional,NO,NO,Santa Fé,NO
HRW,SIN_CODIGO,SIN_CODIGO,helipuerto,RÍO GRANDE/EA. RÍO EWAN,"54°14' 1""S  67°12'48""W",-67.21324,-54.23355,33.7,Metros,Río Grande,59.0,SE,PRIVADO,NOCONTROL,RASU,SAVF,civil,Nacional,NO,NO,Tierra Del Fuego Antártida E Islas Del Atlántico Sur,NO
HSC,SIN_CODIGO,SIN_CODIGO,helipuerto,SPEGAZZINI/CENTRAL TÉRMICA,"34°54' 7""S  58°36'56""W",-58.61566667,-34.90202778,17.0,Metros,Carlos Spegazzini,2.2,NW,PRIVADO,NOCONTROL,RACE,SAEF,civil,Nacional,NO,NO,Buenos Aires,NO
HSD,SIN_CODIGO,SIN_CODIGO,helipuerto,MORENO/COUNTRY CLUB SAN DIEGO,"34°36' 2""S  58°50'27""W",-58.840928,-34.600466,23.5,Metros,Moreno,7.5,NO,PRIVADO,NOCONTROL,RACE,SAEF,desconocido,Nacional,NO,NO,Buenos Aires,NO
HSG,SIN_CODIGO,SIN_CODIGO,helipuerto,BUENOS AIRES/SANATORIO GÜEMES,"34°35'49""S  58°25'19""W",-58.421945,-34.59703,82.0,Metros,Facundo Acuña de Figueroa y Av. Córdoba,0.0,Lindando,PRIVADO,NOCONTROL,RACE,SAEF,civil,Nacional,NO,NO,Ciudad Autónoma De Buenos Aires,NO
HSH,SIN_CODIGO,SIN_CODIGO,helipuerto,SAN ANDRÉS DE GILES/HOSPITAL MUNICIPAL,"34°26'56""S  59°26'58""W",-59.449417,-34.448879,47.0,Metros,Rawson entre Soulé y Cámpora,0.0,,PUBLICO,NOCONTROL,RACE,SAEF,civil,Nacional,NO,NO,Buenos Aires,NO
HSJ,SIN_CODIGO,SIN_CODIGO,aeródromo,CURUZÚ CUATIÁ/EA. SAN JUAN,"29°36' 6""S  58° 1'19""W",-58.02205,-29.60179,82.0,Metros,Curuzú Cuatiá,20.0,N,PRIVADO,NOCONTROL,RANE,SARR,civil,Nacional,NO,NO,Corrientes,NO
HSM,SIN_CODIGO,SIN_CODIGO,helipuerto,TIGRE/ISLA SANTA MÓNICA,"34°24'53""S  58°30'27""W",-58.507365,-34.414724,3.0,Metros,,0.0,Lindando,PRIVADO,NOCONTROL,RACE,SAEF,civil,Nacional,NO,NO,Buenos Aires,NO
HSN,SIN_CODIGO,SIN_CODIGO,helipuerto,SAN NICOLÁS DE LOS ARROYOS/MIGUEL COLOMBISE,"33°21'32""S  60°14'58""W",-60.249353,-33.358932,27.0,Metros,Estación FFCC local,2.7,SO,PUBLICO,NOCONTROL,RACE,SAEF,civil,Nacional,NO,NO,Buenos Aires,NO
HSR,SIN_CODIGO,SIN_CODIGO,helipuerto,SANTA CRUZ/EA. SAN RAMÓN,"50°18'11""S  69°55' 4""W",-69.917664,-50.303036,374.0,Metros,Puerto Santa Cruz,104.0,SO,PRIVADO,NOCONTROL,RASU,SAVF,civil,Nacional,NO,NO,Santa Cruz,NO
HSW,SIN_CODIGO,SIN_CODIGO,helipuerto,HELIPLATAFORMA SWIBER PJW3000,"53° 4'35""S  67°57'50""W",-67.96400424,-53.07649481,36.0,Metros,Campo Vega Pleyade (531929S-0674311W 530346S-0674649W 525444S-0680635W 525554S-0681826W),,,PRIVADO,NOCONTROL,RASU,SAVF,desconocido,Nacional,NO,NO,Tierra Del Fuego Antártida E Islas Del Atlántico Sur,NO
HTA,SIN_CODIGO,SIN_CODIGO,helipuerto,CONCEPCIÓN DEL URUGUAY/HELIPUERTO TALITAS,"32°32'53""S  58°14'27""W",-58.240705,-32.548188,8.0,Metros,Concepción del Uruguay,17.0,SSO,PRIVADO,NOCONTROL,RACE,SAEF,civil,Nacional,NO,NO,Entre Ríos,NO
HTD,SIN_CODIGO,SIN_CODIGO,helipuerto,TANDIL/EA. LA PASCUALA,"37°23'37""S  58°57'59""W",-58.966403,-37.393711,220.0,Metros,Tandil,22.3,S,PRIVADO,NOCONTROL,RACE,SAEF,civil,Nacional,NO,NO,Buenos Aires,NO
HTE,SIN_CODIGO,SIN_CODIGO,helipuerto,SALTA/TEMET,"24°50'10""S  65°22'20""W",-65.372347,-24.836242,1180.0,Metros,Salta,6.5,SE,PRIVADO,NOCONTROL,RANO,SACF,civil,Nacional,NO,NO,Salta,NO
HTL,SIN_CODIGO,SIN_CODIGO,helipuerto,TRENQUE LAUQUEN/EA. LA CHACOTA,"35°54'48""S  62°38'30""W",-62.641667,-35.913333,90.0,Metros,Trenque Lauquen,13.0,NE,PRIVADO,NOCONTROL,RACE,SAEF,civil,Nacional,NO,NO,Buenos Aires,NO
HTS,SIN_CODIGO,SIN_CODIGO,helipuerto,EL TURBIO/EA. SANTA ANA,"51°41' 9""S  71°58' 4""W",-71.967747,-51.685796,665.0,Metros,El Turbio,9.5,E,PRIVADO,NOCONTROL,RASU,SAVF,civil,Nacional,NO,NO,Santa Cruz,NO
HUE,SIN_CODIGO,SIN_CODIGO,aeródromo,CARHUÉ,"37°11'38""S  62°46'53""W",-62.78138889,-37.19388889,110.0,Metros,Carhué,1.5,SO,PRIVADO,NOCONTROL,RACE,SAEF,civil,Nacional,NO,NO,Buenos Aires,NO
HUG,SIN_CODIGO,SIN_CODIGO,aeródromo,HUANGUELÉN,"37° 3'10""S  61°57'12""W",-61.95324,-37.05267,158.0,Metros,Huanguelén,2.0,N,PRIVADO,NOCONTROL,RACE,SAEF,civil,Nacional,NO,NO,Buenos Aires,NO
HUI,SIN_CODIGO,SIN_CODIGO,aeródromo,HUINCA RENANCÓ,"34°49'13""S  64°22'27""W",-64.37412,-34.82041,180.0,Metros,Huinca Renancó,2.0,N,PUBLICO,NOCONTROL,RACE,SACF,civil,Nacional,NO,NO,Córdoba,NO
HUM,SIN_CODIGO,SIN_CODIGO,aeródromo,HUMBOLDT/ESTABLECIMIENTO LA ADELITA,"31°23'23""S  61° 8'33""W",-61.14256,-31.38986,50.0,Metros,Humboldt,5.5,O,PRIVADO,NOCONTROL,RACE,SAEF,aeroapp,Nacional,NO,NO,Santa Fé,NO
HUP,SIN_CODIGO,SIN_CODIGO,helipuerto,GENERAL ALVEAR/UNIDAD PENITENCIARIA N° 30,"36° 2'40""S  60° 1' 0""W",-60.016667,-36.044444,55.0,Metros,General Alvear,2.5,S,PRIVADO,NOCONTROL,RACE,SAEF,civil,Nacional,NO,NO,Buenos Aires,NO
HUU,SIN_CODIGO,SIN_CODIGO,helipuerto,HELIPUERTO SATURNINO UNZUÉ,"35°25'24""S  60° 9'34""W",-60.159541,-35.423236,50.0,Metros,Estación FFCC,8.0,E,PRIVADO,NOCONTROL,RACE,SAEF,civil,Nacional,NO,NO,Buenos Aires,NO
HVA,SIN_CODIGO,SIN_CODIGO,helipuerto,TIGRE/VILLA LA ÑATA,"34°22'31""S  58°39'21""W",-58.655755,-34.375231,3.0,Metros,Estación FFCC Tigre,8.6,NO,PRIVADO,NOCONTROL,RACE,SAEF,civil,Nacional,NO,NO,Buenos Aires,NO
HVM,SIN_CODIGO,SIN_CODIGO,helipuerto,VILLA MARTELLI/CITEFA,"34°33'28""S  58°30'20""W",-58.505501,-34.557728,17.0,Metros,"Zufriategui,Mansi y Gral. Paz",0.0,Lindando,PRIVADO,NOCONTROL,RACE,SAEF,civil,Nacional,NO,NO,Buenos Aires,NO
HWG,SIN_CODIGO,SIN_CODIGO,helipuerto,BUQUE W. G. VESPUCCI,"52°53'60""S  66°49' 0""W",-66.81666667,-52.9,28.0,Metros,25 de Mayo 555 Piso 19-20 CABA,0.0,,PRIVADO,NOCONTROL,RASU,SAVF,civil,Nacional,NO,NO,Tierra Del Fuego Antártida E Islas Del Atlántico Sur,NO
HYC,SIN_CODIGO,SIN_CODIGO,helipuerto,YACANTO DE CALAMUCHITA/ROCA VAL,"32° 3'35""S  64°46'49""W",-64.780353,-32.05978,1050.0,Metros,Villa Yacanto,3.0,NNO,PRIVADO,NOCONTROL,RANO,SACF,civil,Nacional,NO,NO,Córdoba,NO
HZA,SIN_CODIGO,SIN_CODIGO,aeródromo,MAIPÚ/ESTABLECIMIENTO EL ARAZA,"36°46'33""S  57°38'34""W",-57.64277778,-36.77583333,93.0,Metros,Estación Santo Domingo,8.5,SE,PRIVADO,NOCONTROL,RACE,SAEF,desconocido,Nacional,NO,NO,Buenos Aires,NO
IAA,SIN_CODIGO,SIN_CODIGO,aeródromo,INTENDENTE ALVEAR/AZCARATE IRATORSA,"35°11'19""S  63°36'38""W",-63.61052,-35.18862,127.0,Metros,Intendente Alvear,5.0,NNO,PRIVADO,NOCONTROL,RACE,SAEF,aeroapp,Nacional,NO,NO,La Pampa,NO
IAC,SASQ,SIN_CODIGO,aeródromo,LA QUIACA/DR. GUILLERMO EUGENIO SNOPEK,"22° 9'43""S  65°34'19""W",-65.57207,-22.16195,3480.0,Metros,La Quiaca,6.0,SE,PUBLICO,NOCONTROL,RANO,SACF,civil,Nacional,NO,NO,Jujuy,NO
IAL,SIN_CODIGO,SIN_CODIGO,aeródromo,INTENDENTE ALVEAR,"35°14' 1""S  63°33'57""W",-63.56571,-35.23368,127.0,Metros,Intendente Alvear,2.5,E,PUBLICO,NOCONTROL,RACE,SAEF,civil,Nacional,NO,NO,La Pampa,NO
IBA,SIN_CODIGO,SIN_CODIGO,aeródromo,INES INDART/BELINGUERES AVIACIÓN,"34°16'40""S  60°30'16""W",-60.50444444,-34.27777778,63.7,Metros,Salto,14.0,NNE,PRIVADO,NOCONTROL,RACE,SAEF,civil,Nacional,NO,NO,Buenos Aires,NO
IBY,SIN_CODIGO,SIN_CODIGO,aeródromo,ISLAS DEL IBICUY,"33°44'38""S  58°40'52""W",-58.68099,-33.7439,6.0,Metros,Islas de Ibicuy,3.0,S,PRIVADO,NOCONTROL,RACE,SAEF,civil,Nacional,NO,NO,Entre Ríos,NO
ICO,SIN_CODIGO,SIN_CODIGO,aeródromo,COMODORO RIVADAVIA/13 DE DICIEMBRE,"45°54'15""S  67°33'32""W",-67.55888889,-45.90416667,52.0,Metros,Comodoro Rivadavia,8.0,SSO,PUBLICO,NOCONTROL,RASU,SAVF,civil,Nacional,NO,NO,Chubut,NO
IGL,SIN_CODIGO,SIN_CODIGO,aeródromo,INGENIERO LUIGGI,"35°21'20""S  64°28'31""W",-64.47527,-35.35546,193.0,Metros,Ingeniero Luiggi,2.0,N,PUBLICO,NOCONTROL,RACE,SAEF,civil,Nacional,NO,NO,La Pampa,NO
IGU,SARI,IGR,aeródromo,CATARATAS DEL  IGUAZÚ/MY. D. CARLOS EDUARDO KRAUSE,"25°44'14""S  54°28'25""W",-54.47354,-25.73722,279.0,Metros,Cataratas del Iguazú,18.0,SSE,PUBLICO,CONTROL,RANE,SARR,civil,Internacional,SI,SI,Misiones,NO
IJC,SAVJ,IGB,aeródromo,INGENIERO JACOBACCI/CABO F.A.A. H. R. BORDÓN,"41°19'16""S  69°34'34""W",-69.57611111,-41.32111111,892.0,Metros,Ingeniero Jacobacci,2.5,ONO,PUBLICO,AERADIO,RASU,SAEF,civil,Nacional,NO,NO,Río Negro,NO
ILD,SIN_CODIGO,SIN_CODIGO,aeródromo,CASILDA,"33° 3'45""S  61°12'35""W",-61.20973,-33.06242,77.0,Metros,Casilda,3.0,ONO,PUBLICO,NOCONTROL,RACE,SAEF,civil,Nacional,NO,NO,Santa Fé,NO
ILM,SADQ,SIN_CODIGO,aeródromo,QUILMES,"34°42'23""S  58°14'41""W",-58.24461,-34.70643,2.0,Metros,Quilmes,2.0,ENE,PRIVADO,AERADIO,RACE,SAEF,desconocido,Nacional,NO,NO,Buenos Aires,NO
IRA,SAEM,SIN_CODIGO,aeródromo,MIRAMAR,"38°13'34""S  57°52'15""W",-57.87083333,-38.22611111,13.0,Metros,Miramar,4.0,NO,PUBLICO,AERADIO,RACE,SAEF,desconocido,Nacional,NO,NO,Buenos Aires,NO
IRI,SATI,SIN_CODIGO,aeródromo,BERNARDO DE IRIGOYEN,"26°16'54""S  53°40'21""W",-53.67257,-26.28171,815.0,Metros,Bernardo de Irigoyen,4.0,SO,PUBLICO,AERADIO,RANE,SARR,civil,Nacional,NO,NO,Misiones,NO
ITO,SANO,SIN_CODIGO,aeródromo,CHILECITO/BRIG. MY. JUAN FACUNDO QUIROGA,"29°13'24""S  67°26'22""W",-67.43944444,-29.22333333,945.0,Metros,Chilecito,7.2,SE,PUBLICO,NOCONTROL,RANO,SACF,civil,Nacional,NO,NO,La Rioja,NO
IVB,SIN_CODIGO,SIN_CODIGO,aeródromo,ISLA VERDE/D. HÉCTOR BIONDI,"33°14'48""S  62°24'55""W",-62.41538,-33.24674,118.0,Metros,Isla Verde,1.0,SE,PUBLICO,NOCONTROL,RACE,SAEF,civil,Nacional,NO,NO,Córdoba,NO
IVL,SIN_CODIGO,SIN_CODIGO,aeródromo,ISLA VERDE/BIONDI,"33°13'24""S  62°24'17""W",-62.40464,-33.2232,119.0,Metros,Isla Verde,2.0,NNE,PRIVADO,NOCONTROL,RANO,SACF,aeroapp,Nacional,NO,NO,Córdoba,NO
JAH,SIN_CODIGO,SIN_CODIGO,aeródromo,JUNÍN DE LOS ANDES/HOSTERIA SAN HUBERTO,"39°42'14""S  71°10'12""W",-71.17,-39.70388889,691.0,Metros,Junín de los Andes,22.0,NE,PRIVADO,NOCONTROL,RACE,SAEF,civil,Nacional,NO,NO,Neuquén,NO
JAR,SIN_CODIGO,SIN_CODIGO,aeródromo,JACINTO ARAUZ,"38° 3'58""S  63°25'44""W",-63.42902,-38.066,160.0,Metros,Jacinto Arauz,1.0,N,PRIVADO,NOCONTROL,RACE,SAEF,civil,Nacional,NO,NO,La Pampa,NO
JBA,SIN_CODIGO,SIN_CODIGO,aeródromo,JUAN BAUTISTA ALBERDI,"34°29' 1""S  61°54'16""W",-61.90455,-34.48351,102.0,Metros,Juan Bautista Alberdi,10.0,SO,PRIVADO,NOCONTROL,RACE,SAEF,aeroapp,Nacional,NO,NO,Buenos Aires,NO
JCM,SIN_CODIGO,SIN_CODIGO,aeródromo,JUÁREZ CELMAN/BRIG. MY. JUAN IGNACIO SAN MARTÍN,"31°12'40""S  64° 9'38""W",-64.16064,-31.21113,495.0,Metros,Juárez Celman,20.0,N,PUBLICO,NOCONTROL,RANO,SACF,civil,Nacional,NO,NO,Córdoba,NO
JDA,SIN_CODIGO,SIN_CODIGO,aeródromo,JARDÍN DE AMÉRICA,"27° 1'57""S  55°11'53""W",-55.19805556,-27.0325,205.0,Metros,Jardín América,3.0,ENE,PRIVADO,NOCONTROL,RANE,SARR,civil,Nacional,NO,NO,Misiones,NO
JES,SIN_CODIGO,SIN_CODIGO,aeródromo,JESÚS MARÍA,"30°59'18""S  64° 4'41""W",-64.07797,-30.9883,530.0,Metros,Jesús Maria,1.8,ESE,PUBLICO,NOCONTROL,RANO,SACF,civil,Nacional,NO,NO,Córdoba,NO
JGA,SIN_CODIGO,SIN_CODIGO,aeródromo,JOAQUIN V. GONZALEZ/AGROPECUARIA RÍO JURAMENTO,"25°11'12""S  64° 4'53""W",-64.08135,-25.1866,1184.0,Metros,Salta,8.0,SE,PRIVADO,NOCONTROL,RANO,SACF,civil,Nacional,NO,NO,Salta,NO
JLA,SIN_CODIGO,SIN_CODIGO,aeródromo,JUNÍN DE LOS ANDES/SAN IGNACIO,"39°50'44""S  70°51'55""W",-70.86537,-39.84555,691.0,Metros,Junín de los Andes,22.0,NE,PRIVADO,NOCONTROL,RACE,SAEF,civil,Nacional,NO,NO,Neuquén,NO
JMB,SIN_CODIGO,SIN_CODIGO,aeródromo,TRES LOMAS,"36°26'35""S  62°52'45""W",-62.87927,-36.44296,116.0,Metros,Tres Lomas,2.0,NO,PRIVADO,NOCONTROL,RACE,SAEF,desconocido,Nacional,NO,NO,Buenos Aires,NO
JOC,SIN_CODIGO,SIN_CODIGO,aeródromo,JOVITA/ANTARES,"34°31'55""S  63°57'38""W",-63.96055556,-34.53194444,154.0,Metros,Jovita,2.0,SO,PRIVADO,NOCONTROL,RACE,SAEF,aeroapp,Nacional,NO,NO,Córdoba,NO
JOR,SIN_CODIGO,SIN_CODIGO,aeródromo,SAN JORGE,"31°52'58""S  61°50'36""W",-61.84333333,-31.88277778,106.0,Metros,San Jorge,2.5,NE,PUBLICO,NOCONTROL,RANO,SACF,desconocido,Nacional,NO,NO,Santa Fé,NO
JRZ,SAZJ,SIN_CODIGO,aeródromo,JUÁREZ,"37°42'22""S  59°47'31""W",-59.79194444,-37.70611111,212.0,Metros,Benito Juárez,3.0,SSO,PUBLICO,NOCONTROL,RACE,SAEF,civil,Nacional,NO,NO,Buenos Aires,NO
JSM,SAWS,JSM,aeródromo,JOSÉ DE SAN MARTÍN,"44° 2'50""S  70°26'47""W",-70.44638889,-44.04722222,734.0,Metros,José de San Martín,0.0,Lindando,PUBLICO,AERADIO,RASU,SAVF,civil,Nacional,NO,NO,Chubut,NO
JUA,SANU,UAQ,aeródromo,SAN JUAN/DOMINGO FAUSTINO SARMIENTO,"31°34'17""S  68°25' 6""W",-68.41833333,-31.57138889,597.0,Metros,San Juan,12.0,SE,PUBLICO,CONTROL,RANO,SAMF,desconocido,Nacional,SI,SI,San Juan,NO
JUJ,SASJ,JUJ,aeródromo,JUJUY/GOBERNADOR GUZMÁN,"24°23'33""S  65° 5'52""W",-65.09777778,-24.3925,920.0,Metros,San Salvador de Jujuy,33.0,SE,PUBLICO,CONTROL,RANO,SACF,civil,Internacional,SI,SI,Jujuy,NO
LAE,SIN_CODIGO,SIN_CODIGO,aeródromo,PUNTA ROJA/EA. LA ELBA,"44°34'22""S  65°22'14""W",-65.37055556,-44.57277778,14.0,Metros,Camarones,37.0,NE,PRIVADO,NOCONTROL,RASU,SAVF,civil,Nacional,NO,NO,Chubut,NO
LAM,SIN_CODIGO,SIN_CODIGO,aeródromo,GENERAL LAMADRID,"37°13'34""S  61°16'44""W",-61.27888889,-37.22611111,171.0,Metros,General La Madrid,3.0,NO,PUBLICO,NOCONTROL,RACE,SAEF,civil,Nacional,NO,NO,Buenos Aires,NO
LAN,SIN_CODIGO,SIN_CODIGO,aeródromo,LANTERI,"28°51'27""S  59°40'22""W",-59.67277778,-28.8575,56.0,Metros,Lanteri,3.5,SO,PRIVADO,NOCONTROL,RANE,SARR,aeroapp,Nacional,NO,NO,Santa Fé,NO
LAR,SANL,IRJ,aeródromo,LA RIOJA/CAP. VICENTE A. ALMONACID,"29°22'50""S  66°47'45""W",-66.79583333,-29.38055556,438.0,Metros,La Rioja,7.0,NE,PUBLICO,CONTROL,RANO,SACF,civil,Nacional,SI,SI,La Rioja,NO
LAU,SIN_CODIGO,SIN_CODIGO,aeródromo,TRENQUE LAUQUEN,"36° 0'57""S  62°41'38""W",-62.69388889,-36.01583333,99.0,Metros,Trenque Lauquen,4.0,SE,PUBLICO,NOCONTROL,RACE,SAEF,desconocido,Nacional,NO,NO,Buenos Aires,NO
LAZ,SIN_CODIGO,SIN_CODIGO,aeródromo,LA PAZ/AEROCLUB,"30°44'37""S  59°34' 8""W",-59.56887,-30.74368,61.0,Metros,La Paz,6.0,E,PRIVADO,NOCONTROL,RACE,SAEF,civil,Nacional,NO,NO,Entre Ríos,NO
LBI,SIN_CODIGO,SIN_CODIGO,aeródromo,LOBERIA,"38°11'22""S  58°47'14""W",-58.7872,-38.18951,81.0,Metros,Lobería,2.5,S,PRIVADO,NOCONTROL,RACE,SAEF,desconocido,Nacional,NO,NO,Buenos Aires,NO
LCC,SIN_CODIGO,SIN_CODIGO,aeródromo,LA CARLOTA/CASAJUS,"33°23'18""S  63°18'20""W",-63.30551,-33.38823,143.0,Metros,La Carlota,3.5,NNO,PRIVADO,NOCONTROL,RANO,SACF,aeroapp,Nacional,NO,NO,Córdoba,NO
LCP,SIN_CODIGO,SIN_CODIGO,aeródromo,LONCOPUÉ,"38° 4'54""S  70°38'39""W",-70.64406,-38.08177,1106.0,Metros,Loncopué,3.0,OSO,PUBLICO,NOCONTROL,RACE,SAMF,desconocido,Nacional,NO,NO,Neuquén,NO
LCT,SIN_CODIGO,SIN_CODIGO,aeródromo,LA CARLOTA,"33°27'27""S  63°18'49""W",-63.31375,-33.45761,154.0,Metros,La Carlota,4.0,S,PRIVADO,NOCONTROL,RANO,SACF,civil,Nacional,NO,NO,Córdoba,NO
LDA,SIN_CODIGO,SIN_CODIGO,aeródromo,LEZAMA/DON ALBERTO,"35°52'11""S  57°52'36""W",-57.87667,-35.86972,8.0,Metros,Manuel J. Cobo,2.0,NE,PRIVADO,NOCONTROL,RACE,SAEF,aeroapp,Nacional,NO,NO,Buenos Aires,NO
LDG,SIN_CODIGO,SIN_CODIGO,aeródromo,LAGUNA DE GÓMEZ,"34°39'17""S  61° 0'33""W",-61.0091,-34.65469,80.0,Metros,Junín,11.0,SSO,PUBLICO,NOCONTROL,RACE,SAEF,civil,Nacional,NO,NO,Buenos Aires,NO
LDR,SAOD,VDR,aeródromo,VILLA DOLORES,"31°56'51""S  65° 8'51""W",-65.1475,-31.9475,563.0,Metros,Cordoba,0.0,Lindando,PUBLICO,AERADIO,RANO,SACF,desconocido,Nacional,NO,NO,Córdoba,NO
LEN,SIN_CODIGO,SIN_CODIGO,aeródromo,BELÉN DE ESCOBAR,"34°17'55""S  58°47'56""W",-58.79888889,-34.29861111,4.0,Metros,Belén de Escobar,0.0,S,PRIVADO,NOCONTROL,RACE,SAEF,civil,Nacional,NO,NO,Buenos Aires,NO
LEO,SIN_CODIGO,SIN_CODIGO,aeródromo,LEONES,"32°38'34""S  62°19' 1""W",-62.31681,-32.64264,114.0,Metros,Leones,3.0,NO,PRIVADO,NOCONTROL,RANO,SACF,civil,Nacional,NO,NO,Córdoba,NO
LGM,SAVM,SIN_CODIGO,aeródromo,SARMIENTO/LAGO MUSTERS,"45°34'30""S  69° 4'38""W",-69.07713,-45.57506,27.0,Metros,Sarmiento,0.0,N,PRIVADO,NOCONTROL,RASU,SAVF,desconocido,Nacional,NO,NO,Chubut,NO
LHP,SIN_CODIGO,SIN_CODIGO,aeródromo,LAS HERAS/LOS PERALES,"46°11'31""S  69°17'13""W",-69.28694444,-46.19194444,426.0,Metros,Las Heras,47.0,NO,PRIVADO,NOCONTROL,RASU,SAVF,civil,Nacional,NO,NO,Santa Cruz,NO
LIB,SARL,AOL,aeródromo,PASO DE LOS LIBRES,"29°41'17""S  57° 9' 8""W",-57.15222222,-29.68805556,70.0,Metros,Paso de los Libres,6.0,NO,PUBLICO,CONTROL,RANE,SARR,desconocido,Internacional,SI,NO,Corrientes,NO
LIN,SIN_CODIGO,SIN_CODIGO,aeródromo,LINCOLN,"34°53'27""S  61°31'53""W",-61.53138889,-34.89083333,85.0,Metros,Lincoln,3.0,S,PUBLICO,NOCONTROL,RACE,SAEF,desconocido,Nacional,NO,NO,Buenos Aires,NO
LIO,SAZX,SIN_CODIGO,aeródromo,NUEVE DE JULIO,"35°23'58""S  60°55'60""W",-60.93333333,-35.39944444,75.0,Metros,9 de Julio,5.0,NO,PUBLICO,NOCONTROL,RACE,SAEF,desconocido,Nacional,NO,NO,Buenos Aires,NO
LJN,SIN_CODIGO,SIN_CODIGO,aeródromo,LUJÁN,"34°33' 2""S  59° 4'45""W",-59.07916667,-34.55055556,25.0,Metros,Luján,2.0,ENE,PRIVADO,NOCONTROL,RACE,SAEF,desconocido,Nacional,NO,NO,Buenos Aires,NO
LLA,SIN_CODIGO,SIN_CODIGO,aeródromo,LAS LAJITAS/AEROSOLUCIONES,"24°44'56""S  64°14' 6""W",-64.235,-24.74888889,492.0,Metros,Las Lajitas,4.0,OSO,PRIVADO,NOCONTROL,RANO,SACF,aeroapp,Nacional,NO,NO,Salta,NO
LLC,SIN_CODIGO,SIN_CODIGO,aeródromo,LONGCHAMPS/LA CAÍDA,"34°51'45""S  58°20'41""W",-58.34472222,-34.8625,28.0,Metros,Longchamps,4.0,E,PRIVADO,NOCONTROL,RACE,SAEF,desconocido,Nacional,NO,NO,Buenos Aires,NO
LLE,SIN_CODIGO,SIN_CODIGO,aeródromo,LIBERTAD/LA ESMERALDA,"29°59'42""S  57°50'18""W",-57.83833,-29.9951,81.0,Metros,Libertad,8.0,NNO,PRIVADO,NOCONTROL,RANE,SARR,desconocido,Nacional,NO,NO,Corrientes,NO
LLJ,SIN_CODIGO,SIN_CODIGO,aeródromo,LAS LAJAS,"38°32'18""S  70°20'12""W",-70.3367,-38.53828,850.0,Metros,Las Lajas,3.0,SE,PUBLICO,NOCONTROL,RACE,SAEF,civil,Nacional,NO,NO,Neuquén,NO
LMD,SIN_CODIGO,SIN_CODIGO,aeródromo,JUAN N. FERNÁNDEZ/LA MADRUGADA,"38° 0'30""S  59°20'60""W",-59.34998,-38.00845,137.0,Metros,Juan N. Fernández,7.0,O,PRIVADO,NOCONTROL,RACE,SAEF,civil,Nacional,NO,NO,Buenos Aires,NO
LMF,SIN_CODIGO,SIN_CODIGO,aeródromo,LOS MOLINOS/ESTABLECIMIENTO LA FLORENCIA,"33° 4'45""S  61°18'59""W",-61.31628,-33.07912,75.0,Metros,Los Molinos,3.0,NNE,PRIVADO,NOCONTROL,RACE,SAEF,aeroapp,Nacional,NO,NO,Santa Fé,NO
LNH,SIN_CODIGO,SIN_CODIGO,aeródromo,LAGO NAHUEL HUAPI,"41° 5'50""S  71°10'36""W",-71.17678,-41.09725,780.0,Metros,San Carlos de Bariloche,11.0,ENE,PUBLICO,NOCONTROL,RACE,SAEF,civil,Nacional,NO,NO,Río Negro,NO
LNV,SIN_CODIGO,SIN_CODIGO,aeródromo,LINCOLN/LA NUEVA,"34°56'41""S  61°18' 8""W",-61.30217,-34.94464,75.0,Metros,Lincoln,22.0,SE,PRIVADO,NOCONTROL,RACE,SAEF,desconocido,Nacional,NO,NO,Buenos Aires,NO
LPB,SIN_CODIGO,SIN_CODIGO,aeródromo,COMANDANTE LUIS PIEDRABUENA,"49°59'42""S  68°56'59""W",-68.94984,-49.99499,24.0,Metros,Comandante Luis Piedrabuena,3.5,SSO,PRIVADO,NOCONTROL,RASU,SAVF,civil,Nacional,NO,NO,Santa Cruz,NO
LPP,SIN_CODIGO,SIN_CODIGO,aeródromo,LAS PALMAS/PETRUK,"27° 5'16""S  58°40'10""W",-58.66944444,-27.08777778,54.0,Metros,Las Palmas,4.0,SSE,PRIVADO,NOCONTROL,RANE,SARR,aeroapp,Nacional,NO,NO,Chaco,NO
LPR,SIN_CODIGO,SIN_CODIGO,aeródromo,LAPRIDA,"37°31'15""S  60°46'42""W",-60.77833333,-37.52083333,210.0,Metros,Laprida,2.0,NE,PUBLICO,NOCONTROL,RACE,SAEF,civil,Nacional,NO,NO,Buenos Aires,NO
LRE,SIN_CODIGO,SIN_CODIGO,aeródromo,LA RAMADA DE ABAJO/DON EMILIO,"26°43'58""S  64°53' 5""W",-64.88463,-26.73288,530.0,Metros,La Ramada,5.0,SE,PRIVADO,NOCONTROL,RANO,SACF,aeroapp,Nacional,NO,NO,Tucumán,NO
LRS,SIN_CODIGO,SIN_CODIGO,aeródromo,LAS ROSAS,"32°29'35""S  61°34'54""W",-61.58166667,-32.49305556,102.0,Metros,Las Rosas,1.0,S,PUBLICO,NOCONTROL,RACE,SAEF,civil,Nacional,NO,NO,Santa Fé,NO
LRT,SIN_CODIGO,SIN_CODIGO,aeródromo,LAS ROSAS/HORIZONTE APLICACIONES AÉREAS,"32°31'13""S  61°33' 3""W",-61.55083333,-32.52027778,98.0,Metros,Las Rosas,6.0,SE,PRIVADO,NOCONTROL,RACE,SAEF,aeroapp,Nacional,NO,NO,Santa Fé,NO
LVA,SIN_CODIGO,SIN_CODIGO,aeródromo,LAS VARAS/MACIAS,"31°49' 2""S  62°37'49""W",-62.63027778,-31.81722222,126.0,Metros,Las Varas,2.0,SO,PRIVADO,NOCONTROL,RANO,SACF,aeroapp,Nacional,NO,NO,Córdoba,NO
LVL,SIN_CODIGO,SIN_CODIGO,aeródromo,LAS VARILLAS,"31°53'30""S  62°42'17""W",-62.70472222,-31.89166667,135.0,Metros,Las Varillas,2.0,SE,PRIVADO,NOCONTROL,RANO,SACF,desconocido,Nacional,NO,NO,Córdoba,NO
LVM,SIN_CODIGO,SIN_CODIGO,aeródromo,LUJÁN/EA. VILLA MARÍA,"34°38'37""S  59° 7'38""W",-59.12727,-34.6436,32.0,Metros,Luján,9.0,S,PRIVADO,NOCONTROL,RACE,SAEF,desconocido,Nacional,NO,NO,Buenos Aires,NO
LVR,SIN_CODIGO,SIN_CODIGO,aeródromo,LAS VARILLAS/GINEVRO,"31°51'29""S  62°50'40""W",-62.84449,-31.85801,145.0,Metros,Las Varillas,12.0,O,PRIVADO,NOCONTROL,RANO,SACF,aeroapp,Nacional,NO,NO,Córdoba,NO
LYE,SAOL,SIN_CODIGO,aeródromo,LABOULAYE,"34° 8' 8""S  63°21'45""W",-63.36237,-34.13544,137.0,Metros,Laboulaye,2.7,E,PUBLICO,NOCONTROL,RACE,SAEF,civil,Nacional,NO,NO,Córdoba,NO
LZA,SIN_CODIGO,SIN_CODIGO,aeródromo,LAGO LA ESPERANZA,"42°13' 2""S  71°48'19""W",-71.80522,-42.21713,560.0,Metros,Lago Puelo,24.0,SO,PRIVADO,NOCONTROL,RASU,SAVF,civil,Nacional,NO,NO,Chubut,NO
MAB,SIN_CODIGO,SIN_CODIGO,aeródromo,MAGGIOLO/SAMAVE,"33°47'11""S  62° 7'41""W",-62.12792,-33.78639,109.0,Metros,Maggiolo,13.0,SE,PRIVADO,NOCONTROL,RACE,SAEF,aeroapp,Nacional,NO,NO,Santa Fé,NO
MAC,SIN_CODIGO,SIN_CODIGO,aeródromo,MACACHIN,"37° 8'45""S  63°40'44""W",-63.67893,-37.14581,140.0,Metros,Macachín,0.0,SO,PRIVADO,NOCONTROL,RACE,SAEF,desconocido,Nacional,NO,NO,La Pampa,NO
MAD,SIN_CODIGO,SIN_CODIGO,aeródromo,GENERAL MADARIAGA,"37° 2'19""S  57° 8'11""W",-57.13638889,-37.03861111,7.0,Metros,General Juan Madariaga,4.0,S,PUBLICO,NOCONTROL,RACE,SAEF,civil,Nacional,NO,NO,Buenos Aires,NO
MAI,SIN_CODIGO,SIN_CODIGO,aeródromo,MONTE MAIZ,"33°12'40""S  62°37'52""W",-62.63111111,-33.21111111,113.0,Metros,Monte Maiz,2.0,O,PUBLICO,NOCONTROL,RANO,SACF,desconocido,Nacional,NO,NO,Córdoba,NO
MAO,SIN_CODIGO,SIN_CODIGO,aeródromo,VEINTICINCO DE MAYO,"37°48'35""S  67°39'34""W",-67.65938,-37.80974,347.0,Metros,25 de Mayo,7.5,ESE,PRIVADO,NOCONTROL,RACE,SAEF,civil,Nacional,NO,NO,La Pampa,NO
MAQ,SAVQ,MQD,aeródromo,MAQUINCHAO,"41°14'34""S  68°42'30""W",-68.70828,-41.24288,880.0,Metros,Maquinchao,0.0,NE,PUBLICO,NOCONTROL,RASU,SAVF,desconocido,Nacional,NO,NO,Río Negro,NO
MAT,SADZ,SIN_CODIGO,aeródromo,MATANZA,"34°43'42""S  58°30' 2""W",-58.50055556,-34.72833333,3.0,Metros,La Matanza,3.0,NNE,PUBLICO,NOCONTROL,RACE,SAEF,desconocido,Nacional,NO,NO,Buenos Aires,NO
MAY,SIN_CODIGO,SIN_CODIGO,aeródromo,VEINTICINCO DE MAYO,"35°26'47""S  60° 5'19""W",-60.08861111,-35.44638889,89.0,Metros,25 de Mayo,7.0,ENE,PRIVADO,NOCONTROL,RACE,SAEF,desconocido,Nacional,NO,NO,Buenos Aires,NO
MBF,SIN_CODIGO,SIN_CODIGO,aeródromo,MONTE BUEY/PEDRO FERRARI,"32°55'54""S  62°26' 5""W",-62.43474,-32.93173,108.0,Metros,Monte Buey,2.0,ESE,PUBLICO,NOCONTROL,RANO,SACF,desconocido,Nacional,NO,NO,Córdoba,NO
MBI,SAWB,SIN_CODIGO,aeródromo,VICECOMODORO MARAMBIO,"64°14'21""S  56°37'51""W",-56.63085,-64.23913,209.5,Metros,Isla Marambio. Mar de Weddell.,,,PUBLICO,CONTROL,RASU,SAVF,mil,Nacional,NO,NO,Tierra Del Fuego Antártida E Islas Del Atlántico Sur,NO
MBL,SIN_CODIGO,SIN_CODIGO,aeródromo,MIRAMAR/BELLAMAR,"38°23' 8""S  58° 8' 1""W",-58.13353,-38.38559,13.0,Metros,Miramar,29.5,SO,PRIVADO,NOCONTROL,RACE,SAEF,desconocido,Nacional,NO,NO,Buenos Aires,NO
MCL,SIN_CODIGO,SIN_CODIGO,aeródromo,MINA CLAVERO,"31°43'49""S  64°59'16""W",-64.98777778,-31.73027778,970.0,Metros,Mina Clavero,1.0,E,PUBLICO,NOCONTROL,RANO,SACF,desconocido,Nacional,NO,NO,Córdoba,NO
MCO,SIN_CODIGO,SIN_CODIGO,aeródromo,LOS MENUCOS,"40°48'57""S  68° 4'19""W",-68.07203,-40.81596,784.0,Metros,Los Menucos,3.0,SO,PUBLICO,NOCONTROL,RASU,SAVF,desconocido,Nacional,NO,NO,Río Negro,NO
MCP,SIN_CODIGO,SIN_CODIGO,aeródromo,MONTE CASEROS/EL PILINCHO,"30°23'14""S  57°58' 6""W",-57.96833333,-30.38722222,71.0,Metros,Monte Caseros,35.0,OSO,PRIVADO,NOCONTROL,RANE,SARR,desconocido,Nacional,NO,NO,Corrientes,NO
MCS,SARM,MCS,aeródromo,MONTE CASEROS,"30°16'13""S  57°38'22""W",-57.63944444,-30.27027778,52.0,Metros,Monte Caseros,1.5,S,PUBLICO,AERADIO,RANE,SARR,desconocido,Nacional,NO,NO,Corrientes,NO
MCT,SIN_CODIGO,SIN_CODIGO,aeródromo,MONTE CASEROS/TIMBOY,"30°14' 7""S  57°50'45""W",-57.84572,-30.23519,65.0,Metros,Monte Caseros,21.0,ONO,PRIVADO,NOCONTROL,RANE,SARR,desconocido,Nacional,NO,NO,Corrientes,NO
MDB,SIN_CODIGO,SIN_CODIGO,aeródromo,MAR DEL PLATA/BATAN,"38° 0'42""S  57°40'39""W",-57.6775,-38.01166667,62.0,Metros,Batán,11.5,O,PUBLICO,NOCONTROL,RACE,SAEF,desconocido,Nacional,NO,NO,Buenos Aires,NO
MDP,SAZM,MDQ,aeródromo,MAR DEL PLATA/ASTOR PIAZZOLLA,"37°56' 3""S  57°34'24""W",-57.57333333,-37.93416667,22.0,Metros,Mar del Plata,7.0,N,PUBLICO,CONTROL,RACE,SAEF,desconocido,Internacional,SI,SI,Buenos Aires,NO
MER,SADR,SIN_CODIGO,aeródromo,MERLO,"34°40'35""S  58°44'38""W",-58.74388889,-34.67638889,15.0,Metros,Merlo,2.0,SO,PRIVADO,NOCONTROL,RACE,SAEF,desconocido,Nacional,NO,NO,Buenos Aires,NO
MEZ,SIN_CODIGO,SIN_CODIGO,aeródromo,CÓRDOBA/LA MEZQUITA,"31°24' 4""S  64°18' 1""W",-64.3003,-31.40103,510.0,Metros,La Mezquita,6.0,O,PRIVADO,NOCONTROL,RANO,SACF,civil,Nacional,NO,NO,Córdoba,NO
MGI,SIN_CODIGO,SIN_CODIGO,aeródromo,ISLA MARTÍN GARCIA,"34°10'56""S  58°14'49""W",-58.24694444,-34.18222222,2.0,Metros,Isla Martín Garcia,0.0,Lindando,PUBLICO,NOCONTROL,RACE,SAEF,civil,Nacional,NO,NO,Buenos Aires,NO
MIN,SIN_CODIGO,SIN_CODIGO,aeródromo,VILLA MINETTI,"28°37' 8""S  61°36'13""W",-61.60359,-28.61901,75.0,Metros,Villa Minetti,5.0,E,PRIVADO,NOCONTROL,RANO,SACF,desconocido,Nacional,NO,NO,Santa Fé,NO
MJZ,SAOM,SIN_CODIGO,aeródromo,MARCOS JUAREZ,"32°41' 2""S  62° 9'28""W",-62.15772,-32.684,110.0,Metros,Marcos Juarez,5.0,O,PUBLICO,AERADIO,RANO,SACF,desconocido,Nacional,NO,NO,Córdoba,NO
MLA,SIN_CODIGO,SIN_CODIGO,aeródromo,MALABRIGO,"29°22' 2""S  59°58'41""W",-59.97805556,-29.36722222,54.0,Metros,Malabrigo,1.5,S,PRIVADO,NOCONTROL,RANE,SARR,desconocido,Nacional,NO,NO,Santa Fé,NO
MLD,SIN_CODIGO,SIN_CODIGO,aeródromo,CORONEL MOLDES,"33°37' 3""S  64°37' 1""W",-64.61701,-33.61743,357.0,Metros,Coronel Moldes,1.5,NNO,PUBLICO,NOCONTROL,RANO,SAMF,civil,Nacional,NO,NO,Córdoba,NO
MLG,SAMM,LGS,aeródromo,MALARGÜE/COMODORO D. RICARDO SALOMÓN,"35°29'43""S  69°34'23""W",-69.57305556,-35.49527778,1424.0,Metros,Malargüe,1.0,S,PUBLICO,CONTROL,RANO,SAMF,desconocido,Nacional,SI,SI,Mendoza,NO
MOI,SIN_CODIGO,SIN_CODIGO,aeródromo,CORRALITO/DON MOISÉS,"32° 2' 8""S  64°11'28""W",-64.19111111,-32.03555556,489.0,Metros,Corralito,1.5,S,PRIVADO,NOCONTROL,RANO,SACF,aeroapp,Nacional,NO,NO,Córdoba,NO
MON,SIN_CODIGO,SIN_CODIGO,aeródromo,MONJE/FUMIGACIONES GONZALEZ,"32°21'32""S  60°58'47""W",-60.97972222,-32.35888889,30.0,Metros,Monje,3.0,O,PRIVADO,NOCONTROL,RACE,SAEF,aeroapp,Nacional,NO,NO,Santa Fé,NO
MOR,SADM,SIN_CODIGO,aeródromo,MORÓN,"34°40'45""S  58°38'37""W",-58.64361111,-34.67916667,29.0,Metros,Morón,3.0,SO,PUBLICO,CONTROL,RACE,SAEF,desconocido,Nacional,NO,NO,Buenos Aires,NO
MPH,SIN_CODIGO,SIN_CODIGO,aeródromo,MAR DEL PLATA/PARQUE HERMOSO,"38° 1'42""S  57°38'23""W",-57.63972222,-38.02833333,35.0,Metros,Parque Hermoso,9.0,OSO,PRIVADO,NOCONTROL,RACE,SAEF,civil,Nacional,NO,NO,Buenos Aires,NO
MPP,SIN_CODIGO,SIN_CODIGO,aeródromo,MAR DEL PLATA/CLUB DE PLANEADORES,"38° 0'55""S  57°39'13""W",-57.65361111,-38.01527778,45.0,Metros,Mar del Plata,9.5,O,PUBLICO,NOCONTROL,RACE,SAEF,desconocido,Nacional,NO,NO,Buenos Aires,NO
MPU,SIN_CODIGO,SIN_CODIGO,aeródromo,MAIPÚ,"36°53'20""S  57°51' 6""W",-57.85166667,-36.88888889,16.0,Metros,Maipú,3.0,SE,PUBLICO,NOCONTROL,RACE,SAEF,desconocido,Nacional,NO,NO,Buenos Aires,NO
MRD,SIN_CODIGO,SIN_CODIGO,aeródromo,MERCEDES,"34°38'20""S  59°27'19""W",-59.45527778,-34.63888889,42.0,Metros,Mercedes,2.5,NO,PUBLICO,NOCONTROL,RACE,SAEF,desconocido,Nacional,NO,NO,Buenos Aires,NO
MSA,SIN_CODIGO,SIN_CODIGO,aeródromo,VEINTICINCO DE MAYO/SERVICIOS AGROAÉREOS,"35°26'58""S  60° 9'39""W",-60.16088,-35.44932,50.0,Metros,25 de Mayo,2.0,SE,PRIVADO,NOCONTROL,RACE,SAEF,aeroapp,Nacional,NO,NO,Buenos Aires,NO
MSP,SIN_CODIGO,SIN_CODIGO,aeródromo,MARCOS PAZ,"34°47'51""S  58°53'49""W",-58.89693,-34.79759,28.0,Metros,Marcos Paz,6.5,E,PRIVADO,NOCONTROL,RACE,SAEF,desconocido,Nacional,NO,NO,Buenos Aires,NO
MSR,SIN_CODIGO,SIN_CODIGO,aeródromo,MERCEDES/EA. SANTA ROMANA,"33°44'49""S  65°14'44""W",-65.24549,-33.74683,472.0,Metros,Villa Reynolds,13.0,E,PRIVADO,NOCONTROL,RANO,SAMF,desconocido,Nacional,NO,NO,San Luis,NO
MTL,SIN_CODIGO,SIN_CODIGO,aeródromo,MONTECARLO,"26°32'39""S  54°43'26""W",-54.72388889,-26.54416667,240.0,Metros,Montecarlo,3.5,NE,PRIVADO,NOCONTROL,RANE,SARR,desconocido,Nacional,NO,NO,Misiones,NO
MTN,SIN_CODIGO,SIN_CODIGO,aeródromo,METAN,"25°30'51""S  64°57'56""W",-64.96555556,-25.51416667,843.0,Metros,Metán,2.0,NO,PRIVADO,NOCONTROL,RANO,SACF,desconocido,Nacional,NO,NO,Salta,NO
MTR,SIN_CODIGO,SIN_CODIGO,aeródromo,MORTEROS,"30°40'33""S  62° 1'33""W",-62.0259,-30.67594,94.0,Metros,Morteros,3.0,NNO,PUBLICO,NOCONTROL,RANO,SACF,desconocido,Nacional,NO,NO,Córdoba,NO
MUQ,SIN_CODIGO,SIN_CODIGO,aeródromo,QUEMÚ QUEMÚ,"36° 3'27""S  63°37'53""W",-63.63138889,-36.0575,0.0,Metros,Quemú Quemú,6.0,O,PUBLICO,NOCONTROL,RACE,SAEF,desconocido,Nacional,NO,NO,La Pampa,NO
MUS,SIN_CODIGO,SIN_CODIGO,aeródromo,CHASCOMÚS,"35°32'32""S  58° 3' 7""W",-58.05194444,-35.54222222,10.0,Metros,Chascomús,5.0,NO,PUBLICO,NOCONTROL,RACE,SAEF,civil,Nacional,NO,NO,Buenos Aires,NO
NAN,SIN_CODIGO,SIN_CODIGO,aeródromo,HERNANDO/AEROCLUB,"32°20'25""S  63°41' 9""W",-63.68583333,-32.34027778,282.0,Metros,Hernando,1.0,NNE,PRIVADO,NOCONTROL,RANO,SACF,civil,Nacional,NO,NO,Córdoba,NO
NDL,SIN_CODIGO,SIN_CODIGO,aeródromo,TANDIL/AEROCLUB,"37°15'47""S  59° 5'37""W",-59.09361111,-37.26305556,165.0,Metros,Tandil,7.0,NNE,PUBLICO,NOCONTROL,RACE,SAEF,desconocido,Nacional,NO,NO,Buenos Aires,NO
NDR,SIN_CODIGO,SIN_CODIGO,aeródromo,NORBERTO DE LA RIESTRA,"35°19'39""S  59°47'28""W",-59.7910805,-35.327583,38.5,Metros,Norberto de la Riestra,6.0,S,PRIVADO,NOCONTROL,RACE,SAEF,aeroapp,Nacional,NO,NO,Buenos Aires,NO
NEC,SAZO,NEC,aeródromo,NECOCHEA,"38°29'22""S  58°48'59""W",-58.81626,-38.48954,22.0,Metros,Necochea,10.0,NE,PUBLICO,AERADIO,RACE,SAEF,desconocido,Nacional,SI,NO,Buenos Aires,NO
NEI,SIN_CODIGO,SIN_CODIGO,aeródromo,NECOCHEA/IRIBERRI,"38°28'44""S  58°48'16""W",-58.80453,-38.47884,33.0,Metros,Necochea,10.0,NO,PRIVADO,NOCONTROL,RACE,SAEF,aeroapp,Nacional,NO,NO,Buenos Aires,NO
NEU,SAZN,NQN,aeródromo,NEUQUÉN/PRESIDENTE PERÓN,"38°56'56""S  68° 9'21""W",-68.15583333,-38.94888889,273.0,Metros,Neuquén,8.0,ONO,PUBLICO,CONTROL,RACE,SAEF,desconocido,Internacional,SI,SI,Neuquén,NO
NIK,SIN_CODIGO,SIN_CODIGO,aeródromo,LOBERIA/NIKA,"38° 9'24""S  58°45'39""W",-58.76087,-38.15666,80.0,Metros,Lobería,2.0,E,PRIVADO,NOCONTROL,RACE,SAEF,aeroapp,Nacional,NO,NO,Buenos Aires,NO
NIN,SAAJ,JNI,aeródromo,JUNÍN,"34°32'45""S  60°55'50""W",-60.93051,-34.54589,80.0,Metros,Junín,6.5,NNE,PUBLICO,AERADIO,RACE,SAEF,civil,Nacional,SI,NO,Buenos Aires,NO
NJB,SIN_CODIGO,SIN_CODIGO,aeródromo,NOGOYÁ/JUAN CARLOS BAGUR,"32°25' 7""S  59°48'57""W",-59.81583333,-32.41861111,58.0,Metros,Nogoyá,4.0,SO,PRIVADO,NOCONTROL,RACE,SAEF,desconocido,Nacional,NO,NO,Entre Ríos,NO
NOG,SIN_CODIGO,SIN_CODIGO,aeródromo,NOGOYÁ,"32°23'58""S  59°45' 2""W",-59.75055556,-32.39944444,43.0,Metros,Nogoyá,5.0,E,PRIVADO,NOCONTROL,RACE,SAEF,desconocido,Nacional,NO,NO,Entre Ríos,NO
NOT,SIN_CODIGO,SIN_CODIGO,aeródromo,NOGOYÁ/TOGNOLI,"32°26'50""S  59°51'58""W",-59.86611,-32.44736,60.0,Metros,Nogoyá,9.5,SO,PRIVADO,NOCONTROL,RACE,SAEF,aeroapp,Nacional,NO,NO,Entre Ríos,NO
NPA,SIN_CODIGO,SIN_CODIGO,aeródromo,NECOCHEA/PULVERIZACIONES AEROSUR,"38°34'31""S  58°47'42""W",-58.795,-38.57527778,15.0,Metros,Necochea,5.5,SO,PRIVADO,NOCONTROL,RACE,SAEF,aeroapp,Nacional,NO,NO,Buenos Aires,NO
